name,street,housenumber,city,postcode,lat,lon,RD_x,RD_y,tile_code,place_id
De Kletskop,Zeedijk,10,Amsterdam,1012AX,52.3759804,4.9003401,121846.81311069647,487678.77104282787,2436_9753,ChIJ1zQxxrkJxkcRG90MVXyWSIc
Haven van Texel,,,,,52.3757889,4.9002791,121842.51620052078,487657.49204981315,2436_9753,ChIJFS4HyLkJxkcRoMP5yz4NcJ4
Kam Yin,Warmoesstraat,6,Amsterdam,,52.3762358,4.8994544,121786.69329173976,487707.593209052,2435_9754,ChIJC6hwM7gJxkcRj8RMeZoWSTA
De Ooievaar,Sint Olofspoort,1,Amsterdam,1012AJ,52.3762843,4.8999403,121819.8163778302,487712.7668973542,2436_9754,ChIJPfgtzLkJxkcRGHaThBKtz_Q
Bitterzoet,Spuistraat,2,Amsterdam,1012TS,52.3773568,4.8941422,121425.81379834382,487834.767053583,2428_9756,ChIJsY8odsgJxkcRX1QkUoMSOKk
New Dutch,Prinsengracht,62,Amsterdam,1015DX,52.3778982,4.8855738,120842.79052643343,487899.0090120822,2416_9757,ChIJs4EH2rwJxkcRIUllSD3jWA8
Jennifer,Hekelveld,3-1,Amsterdam,1012SN,52.3778143,4.8956039,121525.68934128185,487884.99378562067,2430_9757,ChIJ1xKnD8gJxkcRhna3jSioKWY
O-Cha,Binnen Bantammerstraat,1,,,52.3740057,4.901904,121951.83440735521,487458.3453583622,2439_9749,ChIJVVX0ebkJxkcRpsJM1jfz4aI
Sluyswacht,Jodenbreestraat,1,Amsterdam,1011NG,52.3698563,4.9016848,121933.81452845865,486996.77019805013,2438_9739,ChIJzccHg74JxkcRufHICkn86wo
Orff,,,,,52.369567,4.9017206,121936.03701514385,486964.56546214694,2438_9739,
Betty Blue,Snoekjessteeg,1-3,,,52.3705546,4.90076,121871.35376276722,487074.8875353481,2437_9741,ChIJVRCvvb4JxkcRvi85ASor8tI
Cafe de Zon,Nieuwmarkt,2,Amsterdam,1012CR,52.3731852,4.9003415,121844.81910163257,487367.76762254094,2436_9747,ChIJb6LsFbkJxkcRuWDM0T9mCpk
Nossa Senhora,Zeedijk,28,Amsterdam,1012AZ,52.3754918,4.9008899,121883.88652155874,487624.1564749962,2437_9752,ChIJXTqmvrkJxkcRQzd1EEEsmbI
Maria,Zeedijk,55,Amsterdam,1012AS,52.3750398,4.9011141,121898.81609711786,487573.76309227507,2437_9751,ChIJu1Q5mLkJxkcRLiSUns1oEw4
Oost-West,Zeedijk,85,Amsterdam,1012AT,52.3743423,4.9005681,121861.11472641368,487496.40656093054,2437_9749,ChIJ6_5GCrkJxkcRFpDESbOmyGQ
Little Thai Prince,Zeedijk,33,,,52.3755716,4.9010328,121893.67686140591,487632.9699878312,2437_9752,ChIJZZ0xvrkJxkcR7ZBhNZqXeCU
San Francisco,Zeedijk,42,Amsterdam,1012CR,52.3752067,4.9009395,121887.05118931133,487592.41267860966,2437_9751,ChIJ4VNBvbkJxkcRM24ObmBeZGE
café De Pianist,Groen van Prinstererstraat,41,Amsterdam,1051 EH,52.3834476,4.8723709,119948.17574901489,488522.75728495454,2398_9770,ChIJl1RbCtYJxkcR49CveYoFTRE
De Dijk,Haarlemmerdijk,145,Amsterdam,1013 KG,52.3837471,4.885083,120813.88051240436,488550.00771280925,2416_9771,ChIJl6ep-s0JxkcRYJ6bCxs3S6A
Staalmeesters,,,,,52.3682171,4.8966138,121587.22633068428,486816.7136010979,2431_9736,
Puccini,,,,,52.3682337,4.8985869,121721.6190450052,486817.6527436551,2434_9736,
Brasserie Flo,Amstelstraat,9,,1017 DA,52.3663295,4.8982785,121699.18581077136,486605.9274325349,2433_9732,ChIJa1DBhpUJxkcRuSxzjaUzP_8
Krua Thai,,,,,52.3681585,4.8980317,121683.75004366763,486809.5408436569,2433_9736,
Porto Fino,Kloveniersburgwal,131,Amsterdam,1011KD,52.3681182,4.8964914,121578.81563070785,486805.7661285863,2431_9736,ChIJC2yAlb8JxkcRw10vnLHu-GA
Coco's Outback,,,,,52.365493,4.895531,121511.42477883224,486514.1219520249,2430_9730,ChIJJYouQZUJxkcRPLnmL3YVm6o
Ristorante Isola Bella,,,,,52.3653391,4.8961475,121553.29877983023,486496.7139038678,2431_9729,ChIJT20ZnTcQw4gRkYjmBU4eOgU
Queers Café,Amstel,60,Amsterdam,1017 AC,52.3669068,4.8961508,121554.70538080423,486671.13928817,2431_9733,ChIJR6aN4L8JxkcR6LEnVZeF3Do
De Engelbewaarder,,,,,52.3705213,4.8987361,121733.49598169656,487072.1095516072,2434_9741,ChIJrwlpHr8JxkcR1QZJyOGSiMI
McDonald's,Damrak,8,Amsterdam,1012LG,52.3768951,4.897672,121665.8183366598,487781.7673913829,2433_9755,ChIJXb84GbgJxkcRhUQtnMdwd6Y
Café de Doelen,Kloveniersburgwal,125,Amsterdam,1011 KC,52.3683667,4.8967663,121597.72515797913,486833.28824875917,2431_9736,ChIJvUexvb8JxkcR3qla0L1s8sc
Dwaze Zaken,Prins Hendrikkade,50,Amsterdam,1012CR,52.3765714,4.8993287,121778.3852722485,487744.99075190636,2435_9754,ChIJEZjpLbgJxkcRJg3H6RewsYE
Coffee Company,,,,,52.3716436,4.8967162,121596.78061686507,487197.9091593757,2431_9743,
Sweetella,Warmoesstraat,53,Amsterdam,1012HW,52.3753409,4.8982426,121703.50535961511,487608.5798549701,2434_9752,ChIJPVzBRLgJxkcRhPn_TQV1bgw
"Brouwerij ""De Prael""",Oudezijds Armsteeg,26,Amsterdam,1012GP,52.375572,4.8993901,121781.81770891184,487633.76617997664,2435_9752,ChIJXbROsrkJxkcR7q2r1JpovrE
Kings Cross,Warmoesstraat,95,Amsterdam,1012HZ,52.3745288,4.8970686,121622.95046536592,487518.7630926943,2432_9750,ChIJYzPqibgJxkcRjwXw67yGi9M
In de Olofspoort,Nieuwebrugsteeg,13,Amsterdam,1012 AG,52.3762674,4.8996592,121800.66256633104,487711.0152859453,2436_9754,ChIJm6rnzLkJxkcRb80Hm7LxN8k
Pollux,NDSM-pier,6,Amsterdam,1033 RE,52.4013488,4.8896402,121137.59279031081,490506.2941489919,2422_9810,ChIJnQPjuzoIxkcRQKxzQ2oBszo
Café Wester,Nieuwe Leliestraat,2,Amsterdam,1015 SP,52.3760284,4.8838771,120725.81519976186,487691.7703489905,2414_9753,ChIJ8eqzO8UJxkcRnaqZbdTHTL0
Toscana,,,,,52.3841202,4.884838,120797.48814620482,488591.63564097334,2415_9771,ChIJezSAEFMr1BIRq1kgW7rDxro
Coffeeshop Paradox,Eerste Bloemdwarsstraat,11,,,52.3745293,4.8811906,120541.71577854748,487526.24988770735,2410_9750,ChIJw1nCPNsJxkcRF8yS6ZBl6-M
Blackstar,,,,,52.3736734,4.8824408,120626.18659795632,487430.42616365605,2412_9748,
Peperwortel,,,,,52.3625752,4.8737366,120024.70197652112,486199.7732796289,2400_9723,ChIJkY-oVOEJxkcRSymgd2RO5uQ
Lunchroom Wilhelmina,,,,,52.3629634,4.8734762,120007.27106653227,486243.091151991,2400_9724,ChIJdyrxTuEJxkcRklvldX5zYkU
Mastino,Bilderdijkstraat,192,Amsterdam,1053LE,52.3665222,4.8723739,119935.00165822239,486639.5857346944,2398_9732,ChIJe8a1k-AJxkcRXH4uu29vA0g
,,,,,52.3705983,4.873139,119990.32852193638,487092.73421751603,2399_9741,
Moeders,Rozengracht,251,Amsterdam,1016SX,52.3718427,4.8749777,120116.5270039821,487230.3031191305,2402_9744,ChIJU9-Lo94JxkcRBzlvVAQV7n8
Pagode,,,,,52.3697807,4.8701974,119789.3495836117,487003.1908095683,2395_9740,
Toussaint,Bosboom Toussaintstraat,26,,1054 AS,52.365737,4.876211,120195.72540103797,486550.37261961144,2403_9731,ChIJG60OFucJxkcRoXrCUscEgkw
De Italiaan,Bosboom Toussaintstraat,29,,1054 AN,52.3654913,4.8763748,120206.6891116441,486522.9567063442,2404_9730,ChIJh5RHF-cJxkcREuHP3IZX1yY
Rooster,De Wittenkade,192-1,Amsterdam,1051AP,52.3812414,4.8734487,120019.81494104794,488276.76777129987,2400_9765,EjFEZSBXaXR0ZW5rYWRlIDE5MiwgMTA1MSBYVyBBbXN0ZXJkYW0sIE5ldGhlcmxhbmRzIjESLwoUChIJr5h38dYJxkcReYUliolqUSkQwAEqFAoSCYUXM6nWCcZHEZ3ft6kjk5lj
Nassau,,,,,52.3829473,4.8772203,120277.94406836633,488464.757707152,2405_9769,ChIJyduBuZl8L4kR0lBeSNMB7yo
Jerusalem,Haarlemmerstraat,117,,,52.3808337,4.8902397,121162.73730579218,488223.4331498501,2423_9764,ChIJz_1ezc4JxkcRa9amRiR3Q_E
Coffee Company,,,,,52.3824923,4.8876873,120990.2247598743,488409.16918068693,2419_9768,
Café Restaurant Deksels,,,,,52.3832461,4.8864486,120906.4684404082,488493.62147312285,2418_9769,ChIJh7BqtLOlx0cRaoLMa3IP6fQ
Café de Poort,,,,,52.3822345,4.8881636,121022.4557289352,488380.2620888672,2420_9767,ChIJdUXDj84JxkcRJevvsqtCROo
Padi,,,,,52.3823524,4.8879657,121009.072162005,488393.4728323652,2420_9767,
Bagels & Beans,,,,,52.3833431,4.8861736,120887.82022839338,488504.54342376615,2417_9770,
Rosereijn,,,,,52.3823991,4.8878808,121003.32759863601,488398.70865177165,2420_9767,ChIJbzmhhc4JxkcR4WzeU6t26h4
Seasons Restaurant,Herenstraat,16-2,Amsterdam,1015CA,52.3771918,4.8890188,121076.8245523653,487818.7945614992,2421_9756,ChIJKwIj-sUJxkcRtXqcPMDcsss
De Groene Lanteerne,Haarlemmerstraat,43,Amsterdam,1013EJ,52.3796361,4.8932944,121369.8137467064,488088.76236481086,2427_9761,ChIJz6rC-MgJxkcR__YevavDj3A
Namaskar,Haarlemmerstraat,47,,,52.3796886,4.8931984,121363.31706067777,488094.6482384102,2427_9761,ChIJdcFO-cgJxkcRmmU3OITcBEQ
Rangoli,Haarlemmerstraat,11,,,52.3794045,4.8937259,121399.01850474726,488062.7936464652,2427_9761,ChIJCTx4V8gJxkcRTbtt1zz-MO0
Il Tramezzino,Haarlemmerstraat,79,,,52.3803114,4.8914837,121247.0396974388,488164.7402360538,2424_9763,ChIJ4zptppUJxkcR4sv5hVcIlMs
Bistrot Neuf,Haarlemmerstraat,9,,,52.3793782,4.8937715,121402.10343670269,488059.8462818684,2428_9761,ChIJBfjiWcgJxkcRbUFoMVUlgxI
San Pedro,Haarlemmerstraat,83,,,52.380348,4.8913443,121237.57615645703,488168.8774062255,2424_9763,ChIJ93CoJ8kJxkcRNZC6uT7Mb2E
De Hu's,Haarlemmerstraat,97,Amsterdam,1013EM,52.3805781,4.8907284,121195.81646420936,488194.76619442797,2423_9763,ChIJ230bLMkJxkcRpkBUjFZf2BE
Doors Palace,Spuistraat,46-1,Amsterdam,1012TV,52.376296,4.8924697,121311.12399769969,487717.51525950537,2426_9754,ChIJGZYnNMYJxkcRDQOT-CeESbQ
Wok To Go,Nieuwendijk,1,Amsterdam,1012LZ,52.3788824,4.8947617,121469.15030870774,488004.22336374386,2429_9760,ChIJZWUEQcgJxkcRWkJvOMOF1XE
Rembrandt Corner,,,,,52.3693783,4.9011316,121895.78288419281,486943.83899971034,2437_9738,ChIJmX9FK7wJxkcRKgXAG5EkIzQ
Bagels & Beans,Roetersstraat,2A,Amsterdam,1018WC,52.3640148,4.9106605,122540.81915300568,486342.76974937314,2450_9726,ChIJmU_-V5gJxkcRib1G0GGSl-E
Amsterdam Borrl Kitchen,Plantage Kerklaan,41,,,52.3670112,4.9120064,122634.67791300394,486675.5564016939,2452_9733,ChIJ3-CqaKIJxkcRSOHV9YLIOnk
Plancius,Plantage Kerklaan,61C,Amsterdam,1018CX,52.3678354,4.9127949,122688.98140551825,486766.90761198144,2453_9735,ChIJ01KrR6IJxkcR9E5Cr64soNE
Bread and Salt,Plantage Kerklaan,49-a,Amsterdam,1018 CV,52.3671836,4.9122197,122649.33107828922,486694.6429245891,2452_9733,ChIJb5BOaKIJxkcRi9q4JQGxbU4
Bloem,Entrepotdok,36,,1018 AD,52.3688499,4.9142406,122788.18005249854,486879.1405057173,2455_9737,ChIJg7e006MJxkcRs4LuN-6YZGY
Coffee Company,,,,,52.3656913,4.9107004,122544.76323456221,486529.2843228447,2450_9730,
Coffee Company,,,,,52.3686023,4.9021455,121964.25606092667,486857.03623856464,2439_9737,
,,,,,52.3675472,4.9090206,122431.71432703575,486736.5309468383,2448_9734,
de Eland,Prinsengracht,296,,,52.3699774,4.8822993,120613.68574710179,487019.2653751793,2412_9740,ChIJA0qNKcMJxkcRYVC7V3Qe8jY
't Belgje,,,,,52.3648037,4.8834743,120689.70619711319,486443.06779751106,2413_9728,ChIJl5fz7WR9wUcR8g_mObTy60c
The Bulldog,Leidseplein,17,Amsterdam,1017 PS,52.3639986,4.8833781,120682.53116402501,486353.53565926413,2413_9727,ChIJbaBj8OgJxkcRFSTdTHkc96c
Stoop & Stoop Eetcafé,,,,,52.3642795,4.8838952,120717.96922110484,486384.54465878813,2414_9727,ChIJDdu0_-gJxkcRCuHHUc66TSE
Pieper,Prinsengracht,424,,,52.3662007,4.8823021,120610.94894816028,486599.0575299243,2412_9731,ChIJ-ypFEegJxkcR9EvBPqUdwxc
Pancake Corner Restaurant,,,,,52.3640344,4.88345,120687.45614432584,486357.4848250808,2413_9727,ChIJ0zQzdRjMwoARE21Hses_K-k
Palladium Restaurant Club,Kleine-Gartmanplantsoen,7,Amsterdam,1017RP,52.3635772,4.8835286,120692.45626394368,486306.57826735586,2413_9726,ChIJnXFV2egJxkcRQm6_5ziRw7k
Casa Peru,Leidsegracht,68,Amsterdam,1016 CP,52.3664389,4.8829961,120658.4011079569,486625.2312655572,2413_9732,ChIJQcM9PegJxkcR0JXCXrWk8wA
Chaos,Looiersgracht,142,,,52.367966,4.8792328,120403.2781177647,486796.93060994806,2408_9735,ChIJW_eDZd0JxkcRpRrx8EBe_UQ
Café Eijlders,Korte Leidsedwarsstraat,47,Amsterdam,1017PW,52.3649045,4.8824617,120620.81476748602,486454.7629401786,2412_9729,ChIJ58iYYOgJxkcRt5T688vTezE
,,,,,52.3642833,4.8830315,120659.14370511027,486385.3763493725,2413_9727,
de Brakke Grond,Nes,43,Amsterdam,1012KD,52.3712592,4.8939709,121409.53216919246,487156.40851437073,2428_9743,ChIJT1GjucAJxkcRNXapkrOe504
van Kerkwijk,Nes,41,Amsterdam,1012KC,52.3715399,4.8937076,121391.81372337902,487187.76211861026,2427_9743,ChIJ09vXt8AJxkcRu2BMg6JrCSU
Euro Pub,,,,,52.3729826,4.8944251,121441.76769260851,487347.9488515054,2428_9746,
Museumcafé Mokum,Kalverstraat,92,Amsterdam,1012 PH,52.3704508,4.8909838,121205.49042542357,487067.8521839015,2424_9741,ChIJT9i3G8EJxkcR5dHEcJ5RhGM
Rock Planet,,,,,52.3718033,4.8953952,121506.93992400785,487216.28754700394,2430_9744,
Rancho Steakhouse,,,,,52.3688767,4.8911573,121216.1074821574,486892.63223678834,2424_9737,
Susie's Saloon,,,,,52.3716626,4.8952361,121495.99884121948,487200.70637434674,2429_9744,ChIJnb6AqcAJxkcRYyBObJBOyik
Bierfabriek,Nes,67,Amsterdam,1012 KD,52.3701184,4.8935454,121379.69039114211,487029.6769598587,2427_9740,ChIJQwwp6cAJxkcRfP289B_sI9U
Vlaamse Frites,,,,,52.375104,4.8953014,121503.04480312734,487583.57700204797,2430_9751,
,,,,,52.3705255,4.8935577,121380.83658991804,487074.9664265411,2427_9741,
Pazzi Italian Slow Food,Eerste Looiersdwarsstraat,4,Amsterdam,1016 VM,52.3693392,4.8806778,120502.75981735607,486949.0279807384,2410_9738,ChIJsfsUJd0JxkcRCztH_o2UIkI
Burgermeester,Elandsgracht,130,Amsterdam,1016 VB,52.3691986,4.8788095,120375.41071089765,486934.27537069324,2407_9738,ChIJPagtD90JxkcRFvInigltMHA
Brandstof,,,,,52.3725339,4.8760358,120189.126580019,487306.69927388366,2403_9746,
The Soundgarden,,,,,52.3729248,4.8757394,120169.24886243312,487350.334368719,2403_9747,
Café 't Mannetje,2e Marnixplantsoen,1,Amsterdam,1015 ZP,52.374901,4.8766421,120232.27075910788,487569.77877777716,2404_9751,ChIJOaYK2tsJxkcRaQ3qPliifVg
Sanders,Raadhuisstraat,6,Amsterdam,1012 TJ,52.3733934,4.8893499,121096.46658279469,487396.017888653,2421_9747,ChIJ6x7ioMYJxkcRdS908AEKOu0
Cafe Van Zuylen,Torensteeg,8,Amsterdam,1012TH,52.3745529,4.8899,121134.81267500423,487524.7702120392,2422_9750,ChIJWdGrhsYJxkcRLmR1IePEuc0
Green Planet Coffeeshop,Spuistraat,118,Amsterdam,1012VA,52.3746084,4.8902812,121160.8133630879,487530.7672498211,2423_9750,ChIJV67GiMYJxkcRTWHcfrLE-Qk
Purna,Hartenstraat,29,,,52.3722646,4.8856618,120844.44455660673,487272.15595284855,2416_9745,ChIJP8ksW6Mo0DsRLKQsPRtodeQ
Kagetsu,Hartenstraat,17,,,52.372259,4.8860225,120869.00387798944,487271.3629458857,2417_9745,ChIJiUrNgMMJxkcRywmkAYUIvwE
Vegan Junk Food Bar,Reguliersdwarsstraat,57,Amsterdam,1017BK,52.3663983,4.8913863,121229.81701782775,486616.77145037876,2424_9732,ChIJrzxat3EJxkcRHsG6Rt82faw
Burgerbar,Reguliersbreestraat,9,Amsterdam,1017CL,52.3668547,4.8940976,121414.8262655541,486666.29196520447,2428_9733,ChIJIbstAsAJxkcRJZo-DMj48EM
Falafel,,,,,52.3669207,4.8939533,121405.048225384,486673.7021979574,2428_9733,
Café Katoen,Oude Turfmarkt,153,Amsterdam,1012GC,52.3677668,4.8941167,121416.81758918084,486767.7660504913,2428_9735,ChIJYW91DsAJxkcRDWAEbAoSEXY
Restaurant Bord'Eau,Nieuwe Doelenstraat,2-14,,,52.3674539,4.8943025,121429.23506382294,486732.86579168483,2428_9734,ChIJYTLRCMAJxkcR8ZjjNJFsANA
Flame Steakhouse,Martelaarsgracht,10,Amsterdam,1012TP,52.3780859,4.8966526,121597.30136375905,487914.7289879721,2431_9758,ChIJGYx9F8gJxkcREbUPDDLv1ew
café Bos,Amstelveenseweg,226,Amsterdam,1075 XT,52.3509324,4.856578,118846.465470866,484912.78580291505,2376_9698,ChIJeZOElQPixUcRXDwnsGRdd64
El Rocio Tapas Bar,,,,,52.3521524,4.8875543,120957.8966006391,485033.52628831303,2419_9700,ChIJr-uCftH5cg0R_0MWF8wWl2E
La Roca,,,,,52.3521945,4.8878802,120980.13269260646,485038.0574291585,2419_9700,
Thai Deum,,,,,52.3522209,4.8880745,120993.39071921248,485040.9035828206,2419_9700,ChIJMUQ8mPMJxkcRMveSQ_gM-rY
Pahop Thai,,,,,52.3523455,4.8889814,121055.27372986042,485054.3417933755,2421_9701,ChIJa3nX7j4wUnkR1baZm2Q4YnY
't Ceintuurtje,,,,,52.3522794,4.888533,121024.67341803947,485047.19742624235,2420_9700,
Tapas bar Castro,Koninginneweg,212,Amsterdam,1075 EL,52.3519743,4.8577378,118926.33239157847,485028.1321392218,2378_9700,ChIJAbEQ9wPixUcRu6kHGDQJdEg
't Podium,Ceintuurbaan,274,Amsterdam,1072 GJ,52.3525648,4.8908534,121182.98111268226,485077.8666337202,2423_9701,ChIJBS4RPPMJxkcRUDSRwB86D0c
Nieuw Zuid,Uiterwaardenstraat,138,Amsterdam,1079 CJ,52.3428596,4.9056649,122184.9178451718,483991.2336064587,2443_9679,ChIJieVCWygKxkcR0DRJBF2Ras8
Restaurant HOUT,J.J. Cremerplein,34,Amsterdam,1054TL,52.3600567,4.8580913,118956.98166241034,485927.2236775388,2379_9718,ChIJ91XWHQ_ixUcR9GI3_b48Ut8
,,,,,52.3570239,4.8904953,121161.98372546505,485574.1650208529,2423_9711,
Kuijper,,,,,52.3598914,4.9256271,123557.31296222596,485877.39014405676,2471_9717,
Milo,,,,,52.3602015,4.9254608,123546.20456810057,485911.96495867026,2470_9718,ChIJkSLTjw63A4gR5r28II6WtRU
Turks Fruit,Beukenplein,1,,1092BA,52.3575763,4.9179712,123034.13272067768,485623.15410161857,2460_9712,ChIJIS8RdZ0JxkcR12wroj8QKco
Fata Morgana,,,,,52.3584793,4.9259809,123580.4136909031,485720.1222485052,2471_9714,
Waargenoegen,Papaverweg,46,Amsterdam,1032KJ,52.3979104,4.9050044,122180.66163150144,490116.6554441431,2443_9802,ChIJxe26l0gIxkcREaQkO2_q9XI
Hotel De Goudfazant,Aambeeldstraat,10 H,Amsterdam,1021 KB,52.3837626,4.9301104,123879.46263013274,488531.4432930912,2477_9770,ChIJSe-HUwAJxkcRVMM18XRyVFk
't Sluisje,Nieuwendammerdijk,297,Amsterdam,1025 LM,52.3912178,4.9382277,124437.24746942925,489357.4816554861,2488_9787,ChIJ6w7NrvwIxkcRI_bU-yOQ_Gk
Rosarium,,,,,52.3318651,4.8915964,121217.85486811557,482774.4224917006,2424_9655,
Brouwerij 't IJ,Funenkade,7,Amsterdam,1018 AL,52.3666601,4.9263454,123611.0316202886,486630.1852366421,2472_9732,ChIJk_jIQQsJxkcRxEsf3kkT_nc
Desa,Ceintuurbaan,103,Amsterdam,1072 EX,52.3530404,4.8918487,121251.15271574885,485130.3192314454,2425_9702,ChIJ8_9DLPMJxkcRXIr8pvMx57M
Pizza Taxi Da Paolo & Seba,Ceintuurbaan,121,Amsterdam,1072 GA,52.3531385,4.8925821,121301.19333295288,485140.89286296064,2426_9702,ChIJZQNJ0YwJxkcR6Abbn_PR5O8
Boca's Park,Sarphatipark,4-H,,1072PA,52.3543439,4.8936555,121375.23656829278,485274.51034088025,2427_9705,ChIJzXQPPI0JxkcRzIP34_oUpYA
Febo,Ferdinand Bolstraat,89-B,Amsterdam,1072 LD,52.3538862,4.8909587,121191.16182370897,485224.83992564614,2423_9704,ChIJzd09wHAJxkcRh5unDnjHF4I
Subway,Ceintuurbaan,93,Amsterdam,1072 EX,52.3529905,4.8914518,121224.07416705946,485124.9521051276,2424_9702,ChIJZSsIL_MJxkcRMZGiFS8FTNg
Zabayon,,,,,52.3528236,4.8902932,121145.01200498293,485106.9229064701,2422_9702,ChIJV3LEldvTw4kRIrUx-dURmkQ
Samba Kitchen,,,,,52.3527876,4.8899633,121122.50851694202,485103.0715947252,2422_9702,ChIJkYJZ11NYwokRoWP0sEKULoY
,,,,,52.3547124,4.8895828,121098.0554506141,485317.4077839247,2421_9706,
Greenwoods Keizersgracht,Keizersgracht,465,Amsterdam,1017DK,52.3659755,4.8870159,120931.82915222376,486571.7748954345,2418_9731,ChIJS5CK7ekJxkcRIfx7caJOZf4
Spingaren,Herengracht,88,Amsterdam,1015BS,52.3767704,4.8893171,121096.81437067948,487771.76868507476,2421_9755,ChIJe7xi48UJxkcRYwqmwg2363o
Festina Lente,Looiersgracht,40b,Amsterdam,1016 VS,52.3686458,4.8813577,120548.52547787878,486871.5548760732,2410_9737,ChIJt18aNd0JxkcRHaAyLgQ5y-8
Stroom,Ferdinand Bolstraat,151,Amsterdam,1072 LH,52.3513321,4.8916329,121235.15082691179,484940.34984496434,2424_9698,ChIJlXpIUvMJxkcRuhh55Rnw3ko
Ferdinand Deegspecialiteiten,Ferdinand Bolstraat,172,Amsterdam,1072 LT,52.3516358,4.8911783,121204.4092368832,484974.3521541053,2424_9699,ChIJxy2gT_MJxkcRBLGdJEgyLxQ
Eddy Spaghetti,,,,,52.3539388,4.9206003,123210.62841155264,485217.279129684,2464_9704,ChIJGVTbFXgJxkcR6XWaPa-r2HA
Maslow,Carolina MacGillavrylaan,3198,Amsterdam,1098XK,52.3543814,4.9503602,125238.4150190784,485253.888503391,2504_9705,ChIJJyuTOUMJxkcRZJS0afwU-xU
Coffee Company,,,,,52.3543353,4.9293665,123808.13253066012,485257.58634060627,2476_9705,
Bagels & Beans,,,,,52.3510262,4.8528822,118594.73830275793,484925.07208791206,2371_9698,
TastoeAmsterdam,Hoofddorpplein,1,Amsterdam,1059 CV,52.3508915,4.850327,118420.53552399637,484911.37154212914,2368_9698,ChIJh7rlwRzixUcRhULaiDyaMvs
Dizinghof,Heemstedestraat,18,Amsterdam,1058 NM,52.3517667,4.8486443,118306.61245863656,485009.5988111443,2366_9700,ChIJM_P7YhzixUcRrU0pbwy_8jM
Lokaal van de Stad,Heemstedestraat,68,,1058 NP,52.3517075,4.8461606,118137.34586200476,485004.2723669557,2362_9700,ChIJV5wXGhzixUcRHIUl_mcTpdM
Bridges,,,,,52.3709275,4.895255,121496.73074904874,487118.9081710927,2429_9742,
Cafetaria Roza,,,,,52.3708708,4.8541076,118694.46857250287,487132.41717295564,2373_9742,
Bakkerij Hicret,,,,,52.3709175,4.8543142,118708.57662860362,487137.5096630878,2374_9742,
Cafe Zandvoort,,,,,52.3710166,4.8548801,118747.19643599658,487148.2525647122,2374_9742,ChIJt6n_eRHsxUcRvD0vDQH-ECQ
Wok on Fire,Jan Evertsenstraat,75-H,Amsterdam,1057BR,52.3706058,4.8545566,118724.82960889838,487102.7077123393,2374_9742,ChIJCQkOem3ixUcRBRBoFk0mPbY
KFC,,,,,52.3713795,4.8454191,118103.188697142,487193.4046006763,2362_9743,
Perla di Roma,Johan Huizingalaan,177,,1065HZ,52.3584417,4.8276799,116884.01747972613,485763.09363710345,2337_9715,ChIJ5TwJTiXixUcRAIYtw6mSXqk
Roos Steakhouse,Johan Huizingalaan,174,,1065JH,52.3585173,4.8268358,116826.58171853465,485771.949317159,2336_9715,ChIJDSLoVSXixUcR3CLH5YqzrhQ
Du Maroc,,,,,52.3591448,4.8262917,116790.05758109324,485842.05308476626,2335_9716,ChIJjcVRlmGICw0Rw_8sxIGT09k
FAAM,Reinier Claeszenstraat,10,Amsterdam,1056WJ,52.3716666,4.8625465,119269.81473073903,487216.7659907656,2385_9744,ChIJ6UKjdnTixUcRzqImMa9Xjf0
Jack Dish,Stadionplein,19-H,Amsterdam,1076CG,52.3444136,4.8584023,118965.46809681105,484186.5811079253,2379_9683,ChIJg6jQJ__hxUcRiS_dzyxssdo
Kiebert,,,,,52.348342,4.8606049,119118.73434272615,484622.5709447436,2382_9692,ChIJPbrjuQHixUcRUwDluuuXuEY
La Favola,Amstelveenseweg,143,Amsterdam,1075 VZ,52.3512001,4.85707,118880.20452112141,484942.32542687457,2377_9698,ChIJ8SM76wPixUcRQW7-y1Nuc9g
de Veranda,Amstelveenseweg,764,Amsterdam,1081 JK,52.3307698,4.8569481,118855.27042786668,482669.2684472204,2377_9653,ChIJiSQBYuHhxUcRWtD72Sq7gEQ
Market 33,,,,,52.3373628,4.8714523,119849.14671354475,483395.6861045775,2396_9667,ChIJecc6cFBFAYcRHoigcqCnBSw
Mexico Boulevard,Rijnstraat,157,Amsterdam,1079HD,52.3426535,4.9068543,122265.81771073987,483967.76463020593,2445_9679,ChIJdxTUrCkKxkcRJSSY56WYBCs
Betty's,Rijnstraat,75 hs,Amsterdam,1079 GX,52.3455467,4.9057738,122194.32455009728,484290.15782906115,2443_9685,ChIJCaKukocJxkcR-nXVzNBqbXM
Meram,,,,,52.3802021,4.8205284,116415.78342872091,488187.99341879645,2328_9763,ChIJdWvuwIuG2hQR3u5HrLY7SAM
Vergulde Gaper,Prinsenstraat,30,Amsterdam,1015 DD,52.3780018,4.8865875,120911.89424396207,487910.0585647766,2418_9758,ChIJix_ggc8JxkcRlxR0gfWKAxY
Café Dulác,Haarlemmerstraat,118,Amsterdam,1013EX,52.3809275,4.8904601,121177.81516519861,488233.7667529323,2423_9764,ChIJ66akMskJxkcRtoN6oIt9eMI
Libertine Petit Cafe,,,,,52.3801721,4.8877216,120990.78070373052,488151.0001640872,2419_9763,ChIJUzgUA88JxkcRUfQY8Fzjejs
Habsburg,Stromarkt,1-H,Amsterdam,1012SW,52.3787473,4.8944988,121451.1473101297,487989.31337772176,2429_9759,ChIJuQs_QsgJxkcRTatTcLPL8n4
Biladi,Borgerstraat,189,Amsterdam,1053PK,52.3641198,4.8627155,119275.24688944063,486377.00514530286,2385_9727,ChIJjXeuvwvixUcRBYmWWutN8ac
Guts & Glory,Utrechtsestraat,6,Amsterdam,1017VN,52.3656414,4.8974581,121642.79178545154,486529.744671401,2432_9730,ChIJR3gadpUJxkcRKs_8M0jDY10
Dolphins Coffeeshop,Kerkstraat,39,Amsterdam,1017GB,52.3656175,4.8852579,120811.81669138462,486532.77062485233,2416_9730,ChIJaS6at-kJxkcRvmOwBD_gymk
Schiller,,,,,52.365674,4.896587,121583.48562112324,486533.7731254812,2431_9730,ChIJw_XJQrPdXkgR9W-FbesdONc
Wok to Walk,Kolksteeg,8,,1012pt,52.3762173,4.8953344,121506.132688014,487707.43101026415,2430_9754,ChIJpyqO7ccJxkcR2662UBmXfV4
Maoz,Damrak,40,Amsterdam,1012LK,52.3758021,4.8961627,121562.22181635573,487660.85205175425,2431_9753,ChIJD8eGiscJxkcREF1OddAutQ4
In de Wildeman,Kolksteeg,3,,1012 PT,52.3761636,4.8951567,121493.99184132356,487701.5383215015,2429_9754,ChIJ-UZn7McJxkcRGQkp-vCx-1U
Golden Chopsticks,Oude Doelenstraat,1,Amsterdam,1012 ED,52.3717749,4.8963879,121574.52203272618,487212.66936595005,2431_9744,ChIJs52RTb8JxkcRHWvSgH-PsC0
al Bàcaro,Vijzelstraat,97-H,Amsterdam,1017HH,52.3632692,4.8923315,121291.81632029916,486268.17876956053,2425_9725,ChIJ3ct-PesJxkcREn22V-npuyY
Pianobar Maxim,Leidsekruisstraat,33,Amsterdam,1017RG,52.3632419,4.8845947,120764.8130544666,486268.7677354315,2415_9725,ChIJF-BWGOkJxkcRY4XEBLRsEdo
Bagels & Wraps,Kleine-Gartmanplantsoen,22,Amsterdam,1017RR,52.3625722,4.8835012,120689.8128193081,486194.77214794816,2413_9723,ChIJL4GR2egJxkcRyD_aqwot4AU
Kwekkeboom,Linnaeusstraat,82,,1092CN,52.3565437,4.9270523,123652.03153946092,485504.29775880155,2473_9710,ChIJ63lQw3AJxkcRzolNReyytxQ
Cafe Sport,Linnaeusstraat,102,,1092CP,52.355831,4.9276727,123693.79305689043,485424.73252531386,2473_9708,ChIJmx7hlHAJxkcR52Da5VAq3bA
Natraj,Transvaalstraat,5,,1092HA,52.3555711,4.9274741,123680.07995618523,485395.9010877818,2473_9707,ChIJJ9k6lnAJxkcRqTSFJYXYxMo
Amara May,,,,,52.3552228,4.9257723,123563.89692402935,485357.8849319987,2471_9707,ChIJO-m8E_IJxkcRCCuZIUgEoU8
Kediri,,,,,52.355173,4.9289667,123781.4843615625,485350.9634061365,2475_9707,ChIJ32UO0p1ZeC4RUL1S43Z6AgM
Pizzeria Pescara,,,,,52.3548347,4.9291383,123792.93696262814,485313.24926515634,2475_9706,ChIJd2QouQ2mMRMR4r8ssomeuKA
Toko Sumatra Deli,,,,,52.3561985,4.9279696,123714.27853123943,485465.49346020125,2474_9709,ChIJt6yI63AJxkcRXXZOjWbhbdk
Made in Sud,Korte Lijnbaanssteeg,4B,Amsterdam,1012SL,52.3759379,4.8925048,121313.24210403483,487677.655614432,2426_9753,ChIJFa_LS8YJxkcRG4ny6fGtq8k
Red Light Bar,,,,,52.373196,4.8989149,121747.67782360277,487369.62287208816,2434_9747,ChIJY_sM4LgJxkcRSmLtPQEHRJY
Croque Madame,,,,,52.3738726,4.897099,121624.52683854708,487445.7382289408,2432_9748,
Wok to Walk,Warmoesstraat,85,Amsterdam,1012HZ,52.3747503,4.8973751,121643.9886063391,487543.2667621156,2432_9750,ChIJpyqO7ccJxkcR9zOJXcUfzcA
Eethuis Sie-Joe,Gravenstraat,,Amsterdam,1012NM,52.3742998,4.8919511,121274.2927512024,487495.65303760656,2425_9749,ChIJlRQB-8YJxkcRD7E3ZVHkAEA
THT,Buiksloterweg,5c,Amsterdam,1031 CL,52.3831385,4.9031106,122040.78848312973,488473.9409948397,2440_9769,ChIJJVMCDLQJxkcRy3ZB81Ll5wI
Bread and Salt,Geelvinckssteeg,2-H,Amsterdam,1017BE,52.3665876,4.8915161,121238.801610844,486637.77304658387,2424_9732,ChIJq5R5geoJxkcRSh3rQzWOBOE
Green House Namaste,Waterlooplein,345,Amsterdam,1011PG,52.36665,4.9022485,121969.81743018478,486639.7705086755,2439_9732,ChIJa0Q4970JxkcRqVZzhXacdzw
Wok to walk,Reguliersbreestraat,45,Amsterdam,1017CM,52.3664693,4.8954966,121509.8187631007,486622.76384579815,2430_9732,ChIJK_XmVugJxkcR1ULNAerrs8g
Chipsy King,Muntplein,5,Amsterdam,1017CK,52.3667759,4.8935844,121379.81340415041,486657.76238805155,2427_9733,ChIJxQFxHcAJxkcRJKFuYUV5v4c
Happy Corner,Plantage Middenlaan,,Amsterdam,,52.3662097,4.9118108,122620.7710236035,486586.4664248613,2452_9731,ChIJrSzseaIJxkcRsiwkl7d8cwA
Sichuan Food,Reguliersdwarsstraat,35,Amsterdam,1017BK,52.3665075,4.8905627,121173.80576883847,486629.305438795,2423_9732,ChIJe_4XeuoJxkcRVtg_klFdtww
Sapori Del Mondo,Plantage Middenlaan,,Amsterdam,,52.3660615,4.9116659,122610.79379365886,486570.0419857457,2452_9731,ChIJrSzseaIJxkcR3-ts9qccCRI
Café,Kleine-Gartmanplantsoen,5-H,Amsterdam,1017RP,52.3636684,4.8834156,120684.83000502882,486316.7789295934,2413_9726,ChIJY37-5OgJxkcRhE-7Tyyn-_M
Café Americain,,,,,52.3638967,4.8813718,120545.79778714661,486343.14985956234,2410_9726,
Wok to Walk,Leidsestraat,96,Amsterdam,1017 PE,52.3647338,4.8836169,120699.36483363679,486435.223028799,2413_9728,ChIJK_XmVugJxkcRmAYy6hLO7yM
Cafe het Hok,Lange Leidsedwarsstraat,134,Amsterdam,1017NN,52.363487,4.8851645,120803.81316897909,486295.76924659405,2416_9725,ChIJ1-JAEekJxkcRHyu8I56S4n4
Joost,Molukkenstraat,33,Amsterdam,1095AT,52.3649281,4.9397207,124520.81613425586,486431.768714506,2490_9728,ChIJq00aTRMJxkcRUEqhq0iFE6w
Krater,,,,,52.3637091,4.9110862,122569.59127519869,486308.56608652696,2451_9726,
Agora (mensa),,,,,52.3635596,4.911176,122575.59858380242,486291.89209198393,2451_9725,
Onder de Ooievaar,,,,,52.3619174,4.8991929,121758.15926313882,486114.6045739464,2435_9722,ChIJK4jsEZQJxkcRfXVCd_P7OU0
Pata Negra,Utrechtsestraat,124,Amsterdam,1017VT,52.3614062,4.8991054,121751.81608215593,486057.7671356936,2435_9721,ChIJfbcUCZQJxkcRWuw7il-dIZA
Cantarell,,,,,52.3619917,4.9081599,122369.00882156196,486118.7965060869,2447_9722,
Cafe Noir,,,,,52.3618135,4.9082663,122376.1253195349,486098.9215540934,2447_9721,
Kervan,Dapperplein,25,,1093GP,52.3620563,4.9282331,123736.35658835135,486117.1362000549,2474_9722,ChIJv1pymXMJxkcRhMl1afmHKok
de Pels,,,,,52.3687836,4.8853647,120821.53012837742,486884.98966209585,2416_9737,
Cafe Gollem,Raamsteeg,4,,1012,52.3702533,4.8887186,121051.07305628281,487046.93642806116,2421_9740,ChIJ3bBKfcEJxkcR6h_EUKT6jRI
La Margarita,,,,,52.3692555,4.8929585,121339.06585380848,486933.9405457247,2426_9738,
Casa di David,Singel,426-H,Amsterdam,1017AV,52.3683332,4.8877667,120984.77356674215,486833.74677169573,2419_9736,ChIJCX72IcIJxkcRl7Xhx9Oc3RU
Maoz,Muntplein,1,Amsterdam,1017CK,52.3669672,4.8937723,121392.75587812104,486678.95984035975,2427_9733,ChIJpb83A8AJxkcRHv7D32V9Yik
Blue Amsterdam,,,,1012 WP,52.3673568,4.8915534,121241.92737105873,486723.33911207365,2424_9734,ChIJI4xu08EJxkcRe2_KVZ_zFys
Vlaams Friethuis Vleminckx,Voetboogstraat,33,Amsterdam,1012XK,52.3678977,4.8910171,121205.8133796224,486783.77117170824,2424_9735,ChIJW8FgycEJxkcRImIYQha8SXI
Meram Burger,Pieter Calandlaan,81,Amsterdam,1065KK,52.3560777,4.8289949,116971.57056611836,485499.37899643957,2339_9709,ChIJ75aTByXixUcRm2grhUyTUYk
cafe Huizinga,,,,,52.3528682,4.8269817,116831.66214747334,485143.34138048725,2336_9702,
Prins Heerlijk,Prins Hendrikkade,57,Amsterdam,1012CR,52.3763811,4.8998301,121812.38487577958,487723.5876344333,2436_9754,ChIJaU92zbkJxkcR91-QBcTDf3U
Old Nickel,Nieuwebrugsteeg,11,Amsterdam,1012AG,52.3762924,4.8996007,121796.69779430592,487713.82366655406,2435_9754,ChIJR9_ZzLkJxkcRpxLgKJkegHY
Kom-eet,,,,,52.414822,4.887182,120980.64501626679,492006.5255963274,2419_9840,
Oerknal,,,,,52.3555273,4.9562828,125642.66575323736,485378.96960457426,2512_9707,
't nieuwe diep,Flevopark,13,,1095 KE,52.3620505,4.9501282,125227.7548789568,486107.2718724812,2504_9722,ChIJ64IAVkAJxkcRqCYj000pzYE
Istanbul,,,,,52.4009495,4.9442896,124856.50551766937,490437.7296710766,2497_9808,ChIJawhoAASnyhQR0LABvJj-zOE
Eetcafé Hoever,,,,,52.401222,4.9445741,124876.05268264638,490467.9308169481,2497_9809,ChIJ06Ovj-4IxkcRrxXIrZiOYlM
Tony Singh,,,,,52.3680095,4.9457333,124932.43108088124,486772.103946353,2498_9735,
Landmarkt Restaurant,,,,,52.3807762,4.9684279,126486.29376925893,488183.40023715474,2529_9763,ChIJwe6MGCkJxkcRp7AtrYz-aNI
De Posthoorn,Pieter Cornelisz. Hooftstraat,27,Amsterdam,1071 BL,52.3608089,4.8830765,120659.51982491148,485998.78369125526,2413_9719,ChIJE2TzI-8JxkcRp9PnNBEfyvA
Momo,Hobbemastraat,1,Amsterdam,1071 XZ,52.3615027,4.8825862,120626.65929643883,486076.210192106,2412_9721,ChIJH3HZM-8JxkcRjux4fcpCXZU
Cafe Welling,,,,,52.3559611,4.8772825,120261.05242034544,485462.16576735803,2405_9709,ChIJjcaceVCv2EcRE3BGs3Rmc4s
Hot-dogs,,,,,52.3618874,4.8821356,120596.26432912913,486119.226765206,2411_9722,
Vondelfontein,,,,,52.3603632,4.8752963,120129.20216392099,485952.9087045242,2402_9719,ChIJIeJCQuQJxkcRANN8IuIayy0
De Koffie Salon,,,,,52.3549073,4.8932017,121344.74757942339,485337.40634227265,2426_9706,
Bakers & Roasters,Eerste Jacob van Campenstraat,56,Amsterdam,1072BH,52.3572951,4.8899479,121124.90004183359,485604.5951637517,2422_9712,ChIJw-d5dO0JxkcRDC2--muqC-4
Coffee Company,,,,,52.3549201,4.9008729,121867.36987693013,485335.2961838968,2437_9706,
Cafe Leentje,Wibautstraat,85,,1091 GK,52.3566076,4.9111576,122569.26485094918,485518.40057312406,2451_9710,ChIJHXOvP5sJxkcRTLn6hIbS0Ms
D&L,Govert Flinckstraat,323,Amsterdam,1074 CB,52.357249,4.9012821,121896.98448438893,485594.22902894096,2437_9711,ChIJOdayv5EJxkcRRkcdzhARnp4
De Duvel,Eerste van der Helststraat,59,,,52.3548097,4.8936673,121376.39337116538,485326.3310146211,2427_9706,ChIJx3h6R40JxkcRghNGIYt1QVQ
Elit,,,,,52.3572582,4.9136886,122742.15973940144,485589.65873585525,2454_9711,
Marhaba,,,,,52.3567746,4.9118522,122616.70567563317,485536.6709041152,2452_9710,
Pizzeria Steakhouse Oost,,,,,52.3567304,4.9116966,122606.0733499018,485531.8226174378,2452_9710,ChIJof40aJsJxkcRhh4Z9vbbaTg
Sinbad,,,,,52.356904,4.9124208,122655.53517616585,485550.8144275861,2453_9711,
Lunchroom Hutspot,,,,,52.3574015,4.8992707,121760.07608048695,485612.11714479123,2435_9712,
Joepie Dõner,,,,,52.3566801,4.9114892,122591.90772911187,485526.3188101774,2451_9710,
Kapitein Zeppos,,,,,52.3695387,4.893742,121392.64031239832,486965.08661275374,2427_9739,
Cannibale Royale,Handboogstraat,17A,Amsterdam,1012XM,52.3679936,4.890326,121158.81805021265,486794.76376542234,2423_9735,ChIJLTIex8EJxkcR9zepI-nqsCU
d'Vijff Vlieghen,Spuistraat,294-302,Amsterdam,1012 VX,52.369578,4.8886397,121045.1828411582,486971.8375084296,2420_9739,ChIJ8axof8EJxkcR7Bit04pBgFk
Stach,Singel,437-1,Amsterdam,1012WP,52.3673997,4.8901564,121146.81399964786,486728.7639184508,2422_9734,ChIJL0h628EJxkcRzXvzMaKuze0
The Tara,,,,,52.370214,4.8931552,121353.18902616006,487040.49478781666,2427_9740,ChIJf5acQcu4M4gRSYhGXEbJWQs
Eetcafé 't Gasthuys,,,,,52.3694073,4.893495,121375.71900059555,486950.58122229285,2427_9739,ChIJJzXQYcAJxkcRWqkb_r9D0Kc
De Brabantse Aap,Spui,30,Amsterdam,1012XA,52.3685446,4.8888368,121057.81547634152,486856.7660503108,2421_9737,ChIJv01ZjMEJxkcRWhpTUoEWuDY
Pizzeria Ela Palermo,Niasstraat,16,Amsterdam,1095VA,52.3649243,4.9403221,124561.77571741781,486431.0931797227,2491_9728,ChIJO2eQVBMJxkcR4zY3FQAvtPA
Febo Snackbar,,,,,52.3639487,4.9398614,124529.72682232846,486322.73837391887,2490_9726,
The Zen,Molukkenstraat,2,,,52.3659889,4.9391834,124484.94947955213,486550.0228251284,2489_9731,ChIJb2kyQBMJxkcRE6vdJfmTNS0
Steakhouse Tango,Reguliersdwarsstraat,125,Amsterdam,1017 BC,52.365895,4.8950905,121481.72588542447,486559.05327685375,2429_9731,ChIJN6ygT5UJxkcRU-tL7D8L0Is
Broodjeszaak Etenstijd,Vijzelgracht,59,Amsterdam,1017HP,52.3602772,4.8912785,121217.81467478936,485935.7707185737,2424_9718,ChIJ4Xxwk-wJxkcRE_n_f1I7EbQ
De Spuyt,Korte Leidsedwarsstraat,86,,1017 RD,52.3626171,4.88551,120826.67634839931,486198.81878552696,2416_9723,ChIJpXakOOkJxkcRWBcEFoQIx_4
,,,,,52.3615899,4.8816944,120565.9807614438,486086.335624813,2411_9721,
Mankind,Weteringstraat,60,,1017 SP,52.3607475,4.888122,121003.15953590204,485989.5735236407,2420_9719,ChIJ071WEuwJxkcRMIoiOzRWJlM
Oma,,,,,52.3630587,4.8851836,120804.78404629335,486248.10638065764,2416_9724,
Whiskycafé L&B,,,,,52.3628158,4.8852388,120808.35676006452,486221.0546074379,2416_9724,ChIJyzufPukJxkcRSRJt9R0CA04
Nam Kee,Marie Heinekenplein,4,Amsterdam,1072 MH,52.3574253,4.8911961,121210.03018379044,485618.4989239396,2424_9712,ChIJ5-rGau0JxkcRkEMBrCwv7wE
Soup en zo,Nieuwe Spiegelstraat,54,,,52.3633867,4.8885058,121031.3235985636,486283.0383227412,2420_9725,ChIJk7qExusJxkcR5zOsvNvn1So
B&B,Arent Janszoon Ernststraat,195,Amsterdam,1083GV,52.3319427,4.883702,120679.81726300542,482786.76461661834,2413_9655,ChIJfeYR5RYKxkcRU20YV98qn9Q
Djago,Scheldeplein,18,,1087 GR,52.3445621,4.8900907,121124.91154160401,484187.8223249574,2422_9683,ChIJ_eEv8h8KxkcRHSMxrT9WXbw
Ruby,Arent Janszoon Ernststraat,589A,Amsterdam,1082LD,52.3318963,4.8770566,120226.81862558592,482784.76899749076,2404_9655,ChIJh6afuBEKxkcRZloTYcsxBQ0
,,,,,52.335405,4.8683193,119634.06280094186,483179.38108290674,2392_9663,
Nel,,,,,52.3621972,4.8966302,121583.8095332587,486146.91438501456,2431_9722,
Oosterling,,,,,52.3610702,4.8992147,121759.00951980091,486020.3326838784,2435_9720,
Barney's Lounge coffee shop,Reguliersgracht,27-1,Amsterdam,1017LK,52.3639288,4.8962294,121557.81403944168,486339.76203667594,2431_9726,ChIJMdbHBpUJxkcRWlJXU5Ctdtw
Bar/Brasserie Lempicka,,,,,52.3606931,4.9048062,122139.60732542994,485975.8256951843,2442_9719,ChIJe9hJypAJxkcR4QIWttJV8_M
Brug34,Utrechtsestraat,19,Amsterdam,1017VH,52.3649068,4.8979951,121678.81521096661,486447.76390160935,2433_9728,ChIJLXxYoZUJxkcRHeXqGUVcJ0w
,,,,,52.3634213,4.8727157,119955.83194938769,486294.4057960434,2399_9725,
Coffee Company,Kinkerstraat,330-332,,,52.3649397,4.8627749,119279.95287186606,486468.20011443825,2385_9729,ChIJe6FqogvixUcRgpzxBgQGwDM
Coffee Roastery,Jan Pieter Heijestraat,143,Amsterdam,1054MG,52.3613702,4.865064,119433.00457100576,486069.92237904837,2388_9721,ChIJl_CzlgnixUcRVaqS7SdNsu8
Fenan Klein Afrika,Jan Pieter Heijestraat,147,Amsterdam,1054MG,52.3612668,4.8651169,119436.52506018341,486058.3918677439,2388_9721,ChIJrcMlvgnixUcRxPAJFCxIuPQ
Edel by Dennis,Postjesweg,1,Amsterdam,1057 DT,52.3641089,4.8590875,119028.12669300566,486377.586903733,2380_9727,ChIJK69AQQzixUcRHdpcqTytp7Q
Radijs,Jan Evertsenstraat,41hs,Amsterdam,1057 BM,52.3710583,4.8571118,118899.21286317971,487151.77818280197,2377_9743,ChIJL49jYHLixUcRqJTeQDLwgis
Ron Gastrobar,Sophialaan,55,Amsterdam,1075 BP,52.3521264,4.8567933,118862.10658595199,485045.5256364755,2377_9700,ChIJ477hiQPixUcReMGcBUPbVLk
,,,,,52.356349,4.8559191,118805.9906290685,485515.7783338579,2376_9710,
,,,,,52.3559853,4.866627,119535.16728087544,485470.0187982095,2390_9709,
Waterhappertje,,,,,52.3686548,4.8555444,118790.5085577493,486885.14018884045,2375_9737,
,,,,,52.3585597,4.8653642,119451.20162835097,485757.07165224274,2389_9715,
Marja,,,,,52.3715256,4.8583,118980.51065599573,487203.1800486825,2379_9744,
Le pain quotidien,,,,,52.3545969,4.8720257,119901.8546881525,485312.91397984716,2398_9706,
Dartscafe Biergriet,Ruysdaelkade,169,Amsterdam,1072 AS,52.3530178,4.88724,120937.14727124677,485129.96057797,2418_9702,ChIJxzS6x_MJxkcRNkPNeJCaBw0
Pasta Pasta,Ferdinand Bolstraat,67,Amsterdam,1072 LC,52.3547063,4.8905892,121166.61367618287,485316.2588279209,2423_9706,ChIJC7hfk_IJxkcR57b9_Fdy3_M
Venkel,Albert Cuypstraat,22,Amsterdam,1072 CT,52.3544453,4.8883031,121010.66894917046,485288.2888698578,2420_9705,ChIJY9KsRPIJxkcRq5GfBatyp-g
Mr. Bean,,,,,52.3529534,4.8934163,121357.88648478455,485119.9106351717,2427_9702,
Bagels & Beans,,,,,52.3552355,4.8899685,121124.73126432864,485375.42893662036,2422_9707,
Mash,Gerard Douplein,9,Amsterdam,1073 XE,52.3561729,4.8928945,121324.77944583866,485478.3630741345,2426_9709,ChIJV_L7VY0JxkcR_W9xiqv6mcM
,,,,,52.3546305,4.8891714,121069.96544562095,485308.487880847,2421_9706,
De Barderij,Zeedijk,14,,,52.3758329,4.9004544,121854.48605535713,487662.30743996263,2437_9753,ChIJIRdox7kJxkcRaHRgtxZwSC4
Babel,,,,,52.3758693,4.9081512,122378.62251487642,487662.8650391355,2447_9753,ChIJJVTx55LbzRIRflDZDLv6oxE
Kanis en Meiland,,,,,52.3764475,4.9406825,124594.22221845138,487713.05171736656,2491_9754,ChIJR5KlbhoJxkcRKlWynjpGJpE
&Moshik,Oosterdokskade,5,Amsterdam,1011DL,52.3762529,4.9061002,122239.24414214941,487706.4708032579,2444_9754,ChIJEXbrsLoJxkcRz8UoIGLgaaU
Hannekes Boom,Dijksgracht,4,Amsterdam,1019BS,52.3762931,4.9115789,122612.33936624201,487708.4810344574,2452_9754,ChIJXVNep7cJxkcRd7PwZSlGA3w
De Ouwe Garde,Buitenveldertselaan,28,Amsterdam,1081AA,52.3315076,4.8682732,119627.81652338726,482745.7710344778,2392_9654,ChIJkR1wSwkKxkcRFC2TBz7KjuI
Coffeecompany,Gelderlandplein,145,Amsterdam,1082LW,52.3309356,4.8772877,120241.8189392109,482677.76873506897,2404_9653,ChIJwZ8AlBEKxkcRsg1Z5KwTtfQ
Arrive,Haarlemmerstraat,65-67,,,52.3800115,4.8926278,121324.71094504636,488130.84013181104,2426_9762,ChIJ7TsD5MgJxkcRfB_ApulOzq4
Harlem,Haarlemmerstraat,77,,,52.3802931,4.8915534,121251.77147384216,488162.6716578011,2425_9763,ChIJSdbQIMkJxkcRkXU0TyDhYkU
De Blauwe Druif,Haarlemmerstraat,91,,,52.3804212,4.8910656,121218.65593053233,488177.1517546115,2424_9763,ChIJq6rrKMkJxkcRF3nGlNF7WXI
Stout,Haarlemmerstraat,73,Amsterdam,1013EL,52.3800923,4.8923398,121305.16298591802,488139.9640693885,2426_9762,ChIJQz8d4sgJxkcRnyUrPk2YOac
Zest,,,,,52.3794801,4.8997883,121811.85767291642,488068.4115266391,2436_9761,
Blaauwhooft,Hendrik Jonkerplein,1,Amsterdam,1013 KM,52.3837924,4.8888736,121071.98778712747,488553.26647086226,2421_9771,ChIJ-fR8PMwJxkcRAEsOP0f0pXw
"Café ""De Amstel""",Amstelkade,39,,,52.3486357,4.9031519,122017.96083245862,484635.0377379326,2440_9692,ChIJ5_eck4gJxkcRlpTvkLnwy_4
Nargile Hut,Overschiestraat,172,Amsterdam,1062 XK,52.3461229,4.8390387,117647.42259402061,484386.5639261288,2352_9687,ChIJN_IqOfXhxUcRYsEcxTCofvI
Golden Garden,,,,,52.3498636,4.8397507,117699.08173044723,484802.3953861147,2353_9696,
FEBO Amsteldijk,,,,,52.3475173,4.910872,122543.1619148734,484507.11680919386,2450_9690,ChIJAcwrK4EJxkcR7OHjxG-qQ9k
Faa Thai,Marathonweg,10,Amsterdam,1076 TE,52.3482413,4.8609154,119139.8093757934,484611.2131712846,2382_9692,ChIJ_SmUtgHixUcRTvwwFV_83PY
Brazuca,Rijnstraat,22,Amsterdam,1078 RB,52.3479735,4.904282,122094.4707349171,484560.84602504916,2441_9691,ChIJ63UsgogJxkcR5GlWb8NHNBE
De Toog,,,,,52.3621668,4.8676219,119607.87525542986,486157.3020017247,2392_9723,
Busaba,Amstelveenseweg,155,Amsterdam,1075 XA,52.3505078,4.8574321,118904.31214961002,484865.1181483281,2378_9697,ChIJPzzlxAPixUcRZ-GAN4-ieHs
Affourtit,Koninginneweg,209,Amsterdam,1075 CS,52.3521546,4.8596824,119058.96578898664,485047.22669023793,2381_9700,ChIJucjFsgbixUcRhbnPWvsdUow
1 Tat Döner,Bos en Lommerplein,244,Amsterdam,1055 EJ,52.3785405,4.8478271,118273.10628964502,487988.9340217853,2365_9759,ChIJFwdbkGjixUcRig9ELtFSSuU
Febo,,,,,52.3811907,4.8209325,116444.15709732511,488297.77261377627,2328_9765,
Café Kooper,,,,,52.379811,4.8527169,118607.0958082491,488127.82658952265,2372_9762,ChIJ-diwX-gJxkcRkDfNgUQCkWs
Zomerlust,Burgemeester de Vlugtlaan,156,,1063 BS,52.381289,4.8239366,116648.7788875559,488307.11560880864,2332_9766,ChIJtd53HlLixUcR7YmeYDuzAyw
Café Sportpark,,,,,52.3747914,4.8577787,118947.66421549734,487566.80134200345,2378_9751,ChIJRcvclHHixUcRn8k7uANMu68
Café Sloterplas,,,,,52.3734627,4.8266683,116828.03307611,487434.89852293686,2336_9748,ChIJNRofKDjixUcR3xOaD1xDLrQ
Choi Yuen,Burgemeester Rendorpstraat,17-19,Amsterdam,1064 EL,52.3741582,4.8265868,116823.08175512195,487512.3245711027,2336_9750,ChIJ68xIxUjixUcRWIWzKr3gtZk
Club 8,,,,,52.3713678,4.8615575,119202.22200263088,487184.0087288694,2384_9743,
Akitsu,,,,,52.3722193,4.8752152,120132.99689635694,487272.0904412764,2402_9745,
De Nieuwe Anita,Frederik Hendrikstraat,111,Amsterdam,1052 HN,52.374158,4.8726931,119962.77356283994,487489.012271627,2399_9749,ChIJi0buH9kJxkcRM1InUj8kW0s
Ma Baker,,,,,52.3725132,4.8761591,120197.50699866025,487304.3369125035,2403_9746,
Kalkhoven,,,,,52.3738782,4.8834764,120696.86697630682,487452.7221380123,2413_9749,
Eetwinkel Buurman & Buurman,Mercatorstraat,171,Amsterdam,1056RE,52.3753416,4.848317,118303.8168852808,487632.7672284442,2366_9752,ChIJNyE1P2nixUcRKHwyLvqcaaI
Wild Bean Cafe,,,,,52.3737285,4.8272045,116864.77563134163,487464.18981262326,2337_9749,ChIJWQuDo4JHTIgRjWx9o_3RDx4
Bar Baarsch,,,,,52.370437,4.8535558,118656.53454002755,487084.42798225064,2373_9741,ChIJUWhyDW3ixUcRRrcJecUi82U
,,,,,52.3700299,4.8510822,118487.74101422368,487040.3762959512,2369_9740,
,,,,,52.3699906,4.8508676,118473.09371572941,487036.1118130197,2369_9740,
't Eefje,,,,,52.37084,4.8537803,118672.15360287887,487129.1542971801,2373_9742,ChIJCzqlDG3ixUcRsYJ2j6k6owk
,,,,,52.3702054,4.8468359,118198.70021587408,487062.0507164331,2363_9741,
,,,,,52.3735839,4.8398387,117725.01017052156,487441.5277528934,2354_9748,
Cafe Oslo,,,,,52.3577915,4.8543318,118699.03712428334,485677.0682159596,2373_9713,ChIJkz0dyHhuQUYRAV4F5qIxBUI
,,,,,52.3598053,4.8496246,118380.03538690694,485903.49652688595,2367_9718,
Julia's,,,,,52.389249,4.837659,117589.79569343863,489185.59450328414,2351_9783,
Starbucks,,,,,52.389227,4.837468,117576.77507014839,489183.2453431268,2351_9783,
Smullers,,,,,52.389256,4.837769,117597.28969226028,489186.3165595969,2351_9783,
Eenvistweevis,,,,,52.3708182,4.9117106,122617.31059779353,487099.2672033063,2452_9741,ChIJjcxheKMJxkcRT6jW9p4wTuU
Koffiehuis van de Volksbond,,,,,52.3700007,4.9120281,122638.33668443779,487008.1677630987,2452_9740,ChIJZRlvn6MJxkcRMrr7ONEfAPY
Blokker,,,,,52.3908543,4.9131656,122730.98183524824,489327.90251338796,2454_9786,
Bij Jan,,,,,52.3905819,4.9139295,122782.78367453338,489297.25440587196,2455_9785,
Max,,,,,52.3916569,4.9129642,122717.85667527911,489417.2924044016,2454_9788,
Restaurant Lastage,Geldersekade,29,Amsterdam,1011EJ,52.3754586,4.9024018,121986.81464751622,487619.7727407421,2439_9752,ChIJzw3hf7kJxkcRNOdEzMAbA0w
La Cubanita,,,,,52.3738722,4.9022134,121972.80430483998,487443.3506815521,2439_9748,
Italia Oggi,,,,,52.3738401,4.9022825,121977.48594358588,487439.74764604954,2439_9748,ChIJA9KNRIL-1BIRb15jJFz1LOI
Greetje,Peperstraat,23,Amsterdam,1011TJ,52.3715795,4.9077158,122345.8162769047,487185.7642739209,2446_9743,ChIJsTtGWLsJxkcRN_oTxvo1Wio
Langendijk,,,,,52.3668636,4.9258812,123579.55969539838,486653.0284311234,2471_9733,ChIJkfAcQjugxkcR-MxBYea4LTQ
Lalla Rookh,Wijttenbachstraat,290,,1093 JK,52.3606878,4.9285055,123753.94768288967,485964.7552402373,2475_9719,ChIJF24gw3MJxkcRxPb_fILD4EM
Febo,Linnaeusstraat,92,,1092CP,52.35607,4.9273404,123671.32373115157,485451.467942782,2473_9709,EjFMaW5uYWV1c3N0cmFhdCA5MiwgMTA5MyBLVCBBbXN0ZXJkYW0sIE5ldGhlcmxhbmRzIjASLgoUChIJ_wNv6nAJxkcRVFOcYIgzfRIQXCoUChIJ24LWpHYJxkcRScuSf-pNLGs
Stork,Gedempt Hamerkanaal,201,Amsterdam,1021 JZ,52.3820616,4.920205,123203.85956469909,488346.4839171945,2464_9766,ChIJcwU1qqsJxkcROAOJFGH0Gdk
Da Portare Via,,,,,52.3553934,4.9378589,124387.42945749681,485371.69304875674,2487_9707,
,,,,,52.3625173,4.9358934,124258.46319161847,486165.1518510901,2485_9723,
,,,,,52.347596,4.9400914,124534.16933532886,484503.19104960904,2490_9690,
Roosenburgh,,,,,52.346068,4.9384383,124420.47786825841,484333.8775580511,2488_9686,ChIJbT_1MZar2YgRmiblVFRScUI
1900,,,,,52.3547948,4.9331415,124065.63457293046,485307.09385619813,2481_9706,
,,,,,52.3646727,4.9314704,123958.69819824738,486406.85356851475,2479_9728,
Merkelbach,,,,,52.3512241,4.9334141,124081.71870615818,484909.6910930041,2481_9698,ChIJd7-1aHCcvkcRcBPbENXUIgQ
Farina,Borneosteiger,1,,,52.3697596,4.9368846,124330.9855361888,486970.5335386895,2486_9739,ChIJI7t1IxIJxkcRajNObTtFKlA
Hesp,,,,,52.3498325,4.9125658,122660.2608550867,484763.9550503745,2453_9695,
Kruabuppha,Van Woustraat,241,Amsterdam,1074 AS,52.3495403,4.904308,122097.40369347065,484735.1604790152,2441_9694,ChIJPbq3pYgJxkcRdOu0ZLpMCFA
Pica Pica,Camperstraat,48-50,,1091 AH,52.3578023,4.9134058,122723.29027551452,485650.32276142837,2454_9713,ChIJwX9th5wJxkcRjwJ4qrxNgUk
roost,Camperstraat,36,,1091 AG,52.3580742,4.9131805,122708.14019303638,485680.67549088685,2454_9713,ChIJob_2fpwJxkcREBfwmPWztZo
Contra 73,Camperstraat,24-26,,1091 AG,52.3584584,4.9129258,122691.06929232404,485723.53619585413,2453_9714,ChIJm34BeJwJxkcR2sAeMZBlQXM
Snackbar Ada,Camperstraat,54,,1091 AJ,52.3575706,4.9135347,122731.90275468725,485624.48576037784,2454_9712,ChIJAQDshZwJxkcRmd8HNfAR_LU
Het Wolkje,Vechtstraat,,Amsterdam,1078 RE,52.3485063,4.905521,122179.28676589364,484619.565002637,2443_9692,EitWZWNodHN0cmFhdCwgMTA3OCBSRSBBbXN0ZXJkYW0sIE5ldGhlcmxhbmRzIi4qLAoUChIJMwX-KSgKxkcRXatTWH6VbNcSFAoSCbVDWTCGCcZHEbfUTSj9BhAN
Smokin' Barrels,Beukenplein,22,,1091KH,52.3568665,4.9178946,123028.40316979119,485544.2134851112,2460_9710,ChIJ-fwbbZ0JxkcRtze7V9xzJZM
Wonny's Eethuis,Maritzstraat,28,,1091KW,52.3547005,4.9197846,123155.60278133454,485302.3860968877,2463_9706,ChIJnVM1A3gJxkcRK4bts8ru_TE
Domburg,Vrolikstraat,323,,1091VE,52.3564131,4.9183693,123060.41516948839,485493.5576088004,2461_9709,ChIJlQkDaJ0JxkcRz-OnFQBwlAw
Aries Noodles,Koningin Wilhelminaplein,58,Amsterdam,1062 KS,52.3535631,4.8401983,117732.68504503659,485213.77958819194,2354_9704,ChIJ7WH_tRjixUcRBqJtZBGVfug
The Red Sun,,,,,52.3460697,4.8662367,119500.64845138643,484366.97662473615,2390_9687,
De Smulpaep,,,,,52.3441942,4.8676116,119592.8383194794,484157.6317871063,2391_9683,ChIJ2z0Z7hfuw0cRDU3HZ5cHt7o
Quartier Sud,,,,,52.3460319,4.8668971,119545.61793487686,484362.44768201775,2390_9687,
Döner Company,,,,,52.346391,4.9168755,122951.41537719264,484379.13043576025,2459_9687,
San Lok,,,,,52.3531616,4.826975,116831.45801104259,485175.98921078246,2336_9703,ChIJ_TB1rhTGxokRYWriFEK2q5Q
Canaletto,,,,,52.3533981,4.826975,116831.66140666022,485202.3027002963,2336_9704,
"Waroeng ""adji""",,,,,52.3537486,4.8270217,116835.14442513004,485241.2754811236,2336_9704,ChIJK4fd7iXixUcRIsejKmac5zk
Suvarnadhum,,,,,52.3540339,4.8270284,116835.84622543553,485273.01503772126,2336_9705,
Porto Marina,,,,,52.3564035,4.8268513,116825.81921692053,485536.7551065686,2336_9710,ChIJz20SFHHtXxQRXfkJzM7zqdc
Café Die Rooie,,,,,52.3501067,4.8278068,116885.50431276005,484835.6569603451,2337_9696,
Brasserie 't Siertje,Sierplein,2,Amsterdam,1065 LM,52.355879,4.8264837,116800.32536105845,485478.5917782797,2336_9709,ChIJ0Zg-gSXixUcRN7fruo69wKk
Hoopman,,,,,52.364532,4.8830415,120660.01731755624,486413.0426701313,2413_9728,
Gollem's Proeflokaal,Overtoom,160,,1054 HP,52.3623441,4.872977,119972.77960237491,486174.42730970547,2399_9723,ChIJgyW5V-EJxkcRls3CQsa8ebA
Mossel & Gin,Gosschalklaan,12,Amsterdam,1014 DC,52.3864397,4.8680564,119656.81823890036,488857.7634364455,2393_9777,ChIJfaL0_37ixUcR0k7Qq5PrwIc
Coffeeshop Betty Boop,Reguliersdwarsstraat,29,Amsterdam,1017BJ,52.3665552,4.8902393,121151.81579096238,486634.76366839756,2423_9732,ChIJL2k0d-oJxkcRojIpCkm3m_0
De Oude Wester,Rozengracht,2,,,52.3737394,4.8826827,120642.71055730952,487437.6548141483,2412_9748,ChIJ3QX9ysQJxkcRbwelKBJNiGA
Spuntino,Zeilstraat,32,Amsterdam,1075 SJ,52.3510638,4.854513,118705.87929244748,484928.43769232463,2374_9698,ChIJ_SUxDQPixUcRrk6eP9FaQSU
WG Cafe,Marius van Bouwdijk Bastiaansestraat,52,Amsterdam,1054 SP,52.3636498,4.8703874,119797.42480432337,486320.9576700094,2395_9726,ChIJWWGbn-EJxkcRNv8XOH7xuus
Tia Rosa,Reguliersgracht,11,Amsterdam,1017LJ,52.3642882,4.8961961,121555.81679596925,486379.7652861372,2431_9727,ChIJb_iqHpUJxkcR-P4pd9CIbFU
Ponte Arcari,,,,,52.3645714,4.8961886,121555.51943052714,486411.2784002782,2431_9728,ChIJVXvpGZUJxkcR-aK-Y5WkvJo
Vondeltuin,Vondelpark,7,Amsterdam,1075 VR,52.3548596,4.856619,118852.45761137776,485349.714827219,2377_9706,ChIJAXfOrAXixUcR1byBrlBHZ8E
,,,,,52.3563863,4.8973198,121626.41191269527,485500.05969886616,2432_9710,
Roz shoarma,Jan Pieter Heijestraat,119,Amsterdam,1054MD,52.3627105,4.8641857,119374.2540003003,486219.4790283909,2387_9724,ChIJ9Sk9gQnixUcRGcohS0fTLt8
Voldaan,Jan Pieter Heijestraat,121,Amsterdam,1054ME,52.3623449,4.8644359,119391.0028260726,486178.6784575206,2387_9723,ChIJEXSGhgnixUcRYFlsdUG5YQQ
,,,,,52.3461141,4.9064937,122243.79793485775,484352.96263848443,2444_9687,
Donerland,Eerste Ringdijkstraat,662,Amsterdam,1097BC,52.3493287,4.9196388,123141.8143895513,484704.76870852243,2462_9694,ChIJZ1_4SX8JxkcRZtf0KmxySN4
River Side Bar,Uiterwaardenstraat,99,Amsterdam,1079BT,52.3427164,4.9068389,122264.81464890187,483974.7699955381,2445_9679,ChIJj8DLUigKxkcRVcjZiiUggnE
Snackcorner,Haarlemmerstraat,179,Amsterdam,1013EP,52.3812291,4.8895167,121113.81272576872,488267.7644624754,2422_9765,ChIJF1z2xc4JxkcRPi7cuBgXtyw
Café Thijssen,,,,,52.3807807,4.8873628,120966.81788123371,488218.88339010417,2419_9764,ChIJNQGt-c4JxkcRqmwL9rEToYI
dumplings,Nassauplein,60,Amsterdam,1052 AH,52.3854454,4.880979,120535.79102279007,488740.9100594797,2410_9774,ChIJa8O4oVYJxkcRTEU_vc5PE8c
De Belhamel,,,,,52.3794471,4.8921366,121290.83710663911,488068.2715414875,2425_9761,ChIJkXOJ6MgJxkcRIwjfUYItF44
Pina's Grill,Oostzanerdijk,28,Amsterdam,1035RD,52.4163386,4.8968687,121640.81732027458,492170.7643879632,2432_9843,ChIJy7vK2BMIxkcRA0IT4R2LWts
Döner Company,,,,,52.3890012,4.8385286,117648.78370577266,489157.5749296467,2352_9783,
Snackbar Iris,,,,,52.3679495,4.9258333,123577.06643562594,486773.86988069944,2471_9735,
Studio/K,,,,,52.3651201,4.9362035,124281.38771361015,486454.6161377294,2485_9729,
Café Luxembourg,Spui,24,Amsterdam,1012XA,52.3686609,4.8887034,121048.81919344106,486869.7684144247,2420_9737,ChIJxQDBj8EJxkcRtymFU-erjXg
Hoppe,,,,,52.3687949,4.8885771,121040.32005523283,486884.73682248103,2420_9737,
Hoofdstad,Nieuwe Doelenstraat,2,,,52.3674215,4.8943864,121434.92475438885,486729.22201231774,2428_9734,ChIJw0-tDsAJxkcRnJT3uFHdNCU
Piccolino,Lange Leidsedwarsstraat,63,Amsterdam,1017 NH,52.3636053,4.8852731,120811.30143760811,486308.8804010947,2416_9726,ChIJueu_EekJxkcRHusbQsY_HIE
Da Portare Via,Leliegracht,34,Amsterdam,1015 DG,52.3753539,4.8865459,120907.02628510115,487615.46455898945,2418_9752,ChIJO1BiqcUJxkcRZmfKARq2bec
Knibbel Knabbel Knuisje,,,,,52.3697389,4.8496044,118386.8579894902,487008.744424418,2367_9740,
La Oliva Pintxos y Vinos,Egelantiersstraat,122,Amsterdam,1015 PR,52.3767552,4.8823246,120620.66249669656,487773.3717214313,2412_9755,ChIJXThyt9oJxkcRw0IvHkBtfpE
II Prinsen,,,,,52.377867,4.8864337,120901.31819429819,487895.13265014015,2418_9757,ChIJeyWVgc8JxkcRW8wgxpIWtPc
Van Gogh Cafe,,,,,52.3787583,4.896911,121615.402235927,487989.42330703896,2432_9759,
Drupa Coffee Roasters,Eerste Anjeliersdwarsstraat,16,Amsterdam,1015NR,52.3780101,4.8834211,120696.29708426908,487912.47617175605,2413_9758,ChIJ4zkz_s8JxkcRY1usiMarz0k
H. Burger,De Clercqstraat,128,,,52.3701037,4.8658983,119496.82381310572,487041.2260900727,2389_9740,ChIJ05LKBXXixUcRjmnCSyW-sVg
Staring at Jacob,Jacob van Lennepkade,215,Amsterdam,1054VP,52.3623728,4.8619052,119218.64664837801,486183.02908282867,2384_9723,ChIJ44b-WwnixUcRbP79ihdly2k
Café Woestduin,,,,,52.3527533,4.8479962,118263.27328017392,485119.69845745276,2365_9702,ChIJR8BViBvixUcREjIBg9tsLK8
The Magpie bar & brasserie,,,,,52.349584,4.848888,118321.41233543302,484766.62338986975,2366_9695,ChIJj5wgkXa11okRJdeT7ZDTURk
Glatt Kosjer,Amstelveenseweg,224,,1075 XT,52.3510433,4.8565512,118844.72985802354,484925.138160182,2376_9698,ChIJH0nDlQPixUcRIDXP0FJ8hXo
Pancakes Amsterdam,Prinsengracht,277,Amsterdam,1016GW,52.3748634,4.8838557,120723.45767601197,487562.15900917555,2414_9751,ChIJUYyLz8QJxkcRowe8jVveAB0
Cafe het Molentje,,,,,52.3722481,4.8880984,121010.36411668676,487269.1745514753,2420_9745,ChIJI1YQ-MMJxkcRILWPFWBu1v0
Jasmine,Zeedijk,119,Amsterdam,1012AW,52.3735356,4.9003082,121842.81335100172,487406.7694582797,2436_9748,ChIJG3ypDbkJxkcRSkk_MGEKgj8
Blauwe Engel,,,,,52.3404688,4.873676,120003.14772962919,483740.1904105533,2400_9674,
Cafe Koosje,Plantage Middenlaan,37,Amsterdam,1018DB,52.3666159,4.9116786,122612.0635083532,486631.7205472221,2452_9732,ChIJFatVe6IJxkcRDR7l-nLfHPI
Palorma,,,,,52.3660271,4.9116177,122607.48579838638,486566.2360782666,2452_9731,ChIJEZm4eKIJxkcRz5dXRznmfks
Coffee to Walk,,,,,52.3658897,4.9124585,122664.65219766862,486550.5730816427,2453_9731,
Coffee Company,Spui,28,Amsterdam,1012XA,52.3685804,4.8887924,121054.81898040014,486860.7700585381,2421_9737,ChIJr_vSjcEJxkcRnFQctw8-BJE
Suvi,Van Woustraat,23-hs,Amsterdam,1074 AA,52.3568467,4.8999159,121803.61388521446,485550.0928652702,2436_9711,ChIJEZ7C85EJxkcRlzIrn3ZTYXY
Trattoria l'Angoletto,Hemonystraat,18,Amsterdam,1074BP,52.357297,4.902082,121951.5118345914,485599.2046146224,2439_9711,ChIJX337tpEJxkcRzm7nLfm9d7Q
Soenda Kelapa,Utrechtsestraat,89,Amsterdam,1017 VK,52.3630054,4.8987669,121729.95773000472,486235.8540510311,2434_9724,ChIJU-itR5QJxkcR2iMRzjn2V0A
P.King,Herengracht,515,Amsterdam,1017 BV,52.3654467,4.8926577,121315.68822490542,486510.30201230117,2426_9730,ChIJQWe06uoJxkcRvGxZIMiqOJ0
Bollywood Indian Restaurant,,,,,52.3639694,4.8844033,120752.33763709743,486349.80184603966,2415_9726,
Puri Mas Indonesisch Restaurant,Lange Leidsedwarsstraat,37,,1017,52.3641036,4.8845382,120761.62959056141,486364.6695777393,2415_9727,ChIJNztYAekJxkcRCjhvgShFj4E
Caffe Esprit,Spui,10A,Amsterdam,1012WZ,52.369037,4.8905198,121172.81270432484,486910.76505215577,2423_9738,ChIJk6L8pMEJxkcRv0KLHBVpfKU
Haesje Claes,Spuistraat,273,Amsterdam,1012VR,52.3698955,4.8891296,121078.78978747135,487006.9340885912,2421_9740,ChIJoX9icMEJxkcRUSaUEIDMwd8
Tashi Deleg,Utrechtsestraat,65,Amsterdam,1017 VJ,52.3634907,4.8985572,121716.03823966219,486289.94621344865,2434_9725,ChIJf8cDTJQJxkcRqzZr6gZwSzg
Febo,,,,,52.4001677,4.9074923,122351.65234386957,490366.6872136387,2447_9807,
Adana Döner,,,,,52.3958099,4.9145617,122829.6128316044,489878.6600532087,2456_9797,ChIJeYXuNjCPKBURqg5nfE2p1Uc
Marcouch,,,,,52.3956863,4.9145676,122829.92470771573,489864.90523549105,2456_9797,
Pasouk,,,,,52.3937619,4.9138248,122777.96795080641,489651.1193786412,2455_9793,
Rio Bueno,Warmoesstraat,15F,Amsterdam,1012HT,52.3759227,4.8990779,121760.82131236928,487672.9293227243,2435_9753,ChIJPT_QNbgJxkcRunfhr0O3TxM
De Broeders,,,,,52.3910512,4.9107574,122567.1962037588,489350.88543427695,2451_9787,ChIJ9d3pQDUvx0cR_B5aZWC9dDo
Mesir Döner,,,,,52.3907878,4.9114951,122617.21989497768,489321.24868284364,2452_9786,
Merksnack De Keizer,,,,,52.3898397,4.9124994,122684.89310573346,489215.31133526645,2453_9784,
The Pancake Bakery,Prinsengracht,191,Amsterdam,1015 DS,52.3775885,4.8862637,120889.52847755945,487864.2258724452,2417_9757,ChIJDdV0fsUJxkcREOh_Cj5402o
Lunch & Dinner,Nieuwezijds Voorburgwal,119,Amsterdam,1012RH,52.3743286,4.8915885,121249.62276911079,487499.02621802845,2424_9749,ChIJC95D-sYJxkcRABoy10oXHaA
Seafood Grill,,,,,52.3744155,4.8916595,121254.52375225683,487508.6619177724,2425_9750,
Corner House Hotel Cafe,Nieuwezijds Voorburgwal,121,Amsterdam,1012RH,52.3742722,4.8915479,121246.81512204125,487492.7698883384,2424_9749,ChIJfTJb8MYJxkcRpPhzzWDi2sA
Rembrandt Bar,Rembrandtplein,3,Amsterdam,1017CT,52.3664263,4.8959522,121540.81671873899,486617.76910842804,2430_9732,ChIJDyVnXpUJxkcRJMlgYeIOFt4
Café Bar De Duivel,Reguliersdwarsstraat,87,Amsterdam,1017 BK,52.3660898,4.8935379,121376.12638384267,486581.4464666183,2427_9731,ChIJ-eNLu-oJxkcRcA_6pWahshg
Bunga Mawar,Zeedijk,41,Amsterdam,1012AR,52.3753852,4.901161,121902.26752942012,487612.17197363585,2438_9752,ChIJpVJplrkJxkcRAbNnBP-ujSc
De Portugees,Zeedijk,39,Amsterdam,1012AR,52.3754456,4.9011363,121900.63065282068,487618.90355067747,2438_9752,ChIJ-6nhlbkJxkcR6CnDXc0yxPo
PomoRosso,Amstelveenseweg,41,Amsterdam,1075 VT,52.354366,4.8557461,118792.58730317645,485295.23141862586,2375_9705,ChIJMXtI-ATixUcRQKME8Oa4CuU
de Joffers,,,,,52.3557515,4.8709783,119831.41349297816,485441.8853829154,2396_9708,
Van Dam,,,,,52.3556729,4.8707638,119816.73832811932,485433.24425085395,2396_9708,
,,,,,52.354821,4.8985777,121710.93139902074,485325.3217071301,2434_9706,
Sranant Food,Ceintuurbaan,432,Amsterdam,1074EB,52.3550748,4.90261,121985.82766816614,485351.7158855216,2439_9707,ChIJGV6A0o8JxkcRxXwwaBhUjAc
Bagels and Beans,Ruyschstraat,52,Amsterdam,1091 CD,52.3573055,4.9098791,122482.67963761704,485596.6237201444,2449_9711,ChIJj5CNHJsJxkcRYZh5K_qpj3U
Clubkoffie,,,,,52.3545647,4.9198091,123157.17445985696,485287.26583845564,2463_9705,ChIJo0dSPHgJxkcRDuxwBhXNS5U
De Ysbreeker,Weesperzijde,23,Amsterdam,1091 EC,52.3574883,4.9068874,122279.0109537027,485618.3089510212,2445_9712,ChIJ5dKrnJoJxkcR0ehyJ37T-Tc
,,,,,52.3505865,4.9033425,122032.39653234374,484852.0021500655,2440_9697,
Febo,,,,,52.355629,4.9008139,121863.87970708645,485414.1973042342,2437_9708,
Bir Tat,Bos en Lommerweg,242,Amsterdam,1055 EJ,52.3786322,4.8483173,118306.55991572967,487998.8885015258,2366_9759,ChIJPcnUmWjixUcRizUL6agVtvU
Bread Pitt Sandwich Factory,,,,,52.3823226,4.8552626,118782.4791474534,488405.9992429581,2375_9768,
Café Lowietje,,,,,52.3803326,4.8822843,120620.69165186406,488171.4235076743,2412_9763,ChIJt6J7NNAJxkcRdZt1gEvc5ac
Amore,,,,,52.3907605,4.9116246,122626.01522605936,489318.1533234517,2452_9786,ChIJJWERfUMH9YgRS9LkuPEgHJs
Number 1,,,,,52.3909805,4.9107492,122566.58629805835,489343.0227674683,2451_9786,
Pancakes Amsterdam,Berenstraat,38,Amsterdam,1016 GH,52.3704793,4.8832522,120678.96978463273,487074.6565457619,2413_9741,ChIJm4VbI8MJxkcRI2kOSMgb0SM
Zouk,Eerste Constantijn Huygensstraat,45,,1054 BS,52.3638495,4.874814,120099.09115945664,486341.0359737504,2401_9726,ChIJFdEoz-YJxkcR7VSywkI6Kp0
Nol,Westerstraat,109,,,52.3782364,4.8834555,120698.81444317325,487937.6387315957,2413_9758,ChIJI0VM_M8JxkcRhtGIFC__fmU
Starbucks,Leidsestraat,101,Amsterdam,1017 NZ,52.3645106,4.8836352,120700.43872194973,486410.380508532,2414_9728,ChIJlVbUV-gJxkcRHHmmM_0RSNI
Dapper,,,,,52.3658481,4.8733926,120003.85219776808,486564.0911148635,2400_9731,
Cafe Oranje,,,,,52.3657314,4.8729096,119970.8630783766,486551.3400892476,2399_9731,ChIJVU9WwuAJxkcRfT1wPFel1Og
Miss Saigon,,,,,52.3659848,4.8728348,119965.96856335638,486579.57022777,2399_9731,
Coffeeshop Tops,,,,,52.3642145,4.8851869,120805.8995864442,486376.7023692669,2416_9727,ChIJ5VYl2Pk3z0cRvOZkoaAQHFI
Balti House,,,,,52.3547606,4.888633,121033.38544932827,485323.21532288066,2420_9706,
Mas Tapas,,,,,52.35585,4.8884747,121023.43502071816,485444.49903835857,2420_9708,ChIJt8ZVxp-Is4kRTxMBkzXli2w
LM,,,,,52.356045,4.8885043,121025.60080714822,485466.1813807478,2420_9709,
,,,,,52.3567756,4.8886034,121032.91118082007,485547.42343637504,2420_9710,
Zen,,,,,52.3570377,4.8886451,121035.95253523043,485576.5658423479,2420_9711,ChIJS-7mFG18z1QRV1jBD0ciR1k
De 3 Vrienden,,,,,52.357371,4.8887506,121043.3945775789,485613.6002627481,2420_9712,
Otaru,Frans Halsstraat,2,Amsterdam,1072 BR,52.3584175,4.8888704,121052.3562616982,485729.98055908247,2421_9714,ChIJpxDWse0JxkcRxiYNY81msEY
Cereal & Chill,Dusartstraat,22-H,Amsterdam,1072HS,52.352179,4.8891227,121064.77326515755,485035.75041016657,2421_9700,ChIJe-9YbWQJxkcRgCfj56TpRM8
Keyzer,,,,,52.3568126,4.8792088,120392.94542700062,485555.9843499344,2407_9711,
Corner Bakery Amsterdam,Johannes Vermeerstraat,40,Amsterdam,1071 DS,52.3547327,4.8840259,120719.49704314726,485322.2800968822,2414_9706,ChIJSeBqvvEJxkcRgNd_D_BQv3Q
Small Talk,Van Baerlestraat,52,Amsterdam,1071 BA,52.3579755,4.878408,120339.30036055889,485685.75430369424,2406_9713,ChIJkzlfTvcJxkcRo_h3PXW0YGs
Sama Sebo,Pieter Cornelisz. Hooftstraat,27,Amsterdam,1071 BL,52.3606764,4.8831414,120663.83811811975,485984.0106324974,2413_9719,ChIJNV8sZvwNxkcR5Kf9nQfL180
Maxies,,,,,52.3600875,4.8797621,120433.18933368205,485920.0943422755,2408_9718,ChIJpVEKVtsaBYgRJ1aZS8FXSLI
Hard Rock Cafe,Max Euweplein,57,,1017 MA,52.3621869,4.8833077,120676.33455621998,486151.9942266408,2413_9723,ChIJweXO1ugJxkcR2nckxDGWbIc
Hosokawa,,,,,52.3629202,4.8827502,120638.92813342962,486233.84737509565,2412_9724,
Aran Irish Pub,,,,,52.362125,4.8826713,120632.93800082195,486145.4086397329,2412_9722,ChIJwdzoy-gJxkcRgIw_p7s7G3w
Wagamama,,,,,52.3625079,4.8831541,120666.12042917857,486187.78232480935,2413_9723,
Maximus Steak House,,,,,52.3622945,4.8834726,120687.64998707068,486163.8880186015,2413_9723,ChIJpegz0egJxkcRdNth9h7vxm0
De Balie,,,,,52.36312,4.883101,120662.977227609,486255.9114206264,2413_9725,ChIJ41VT3egJxkcRT9LuvhNkxcg
Krom,Utrechtsestraat,76,Amsterdam,1017VR,52.3629227,4.8985161,121712.81265391292,486226.7677676012,2434_9724,ChIJR-WSRpQJxkcREz4wbH2rmtQ
Café Krull,,,,,52.3544049,4.8935424,121367.57758059786,485281.3498371307,2427_9705,ChIJkVRVOY0JxkcRBQD6sTVXHhY
Wynand Fockink,Pijlsteeg,31,Amsterdam,1012HH,52.3723195,4.8952995,121500.81252938698,487273.76577279816,2430_9745,ChIJ_1DTVccJxkcRDttrB9MqOLc
Pasta Factory,Reguliersdwarsstraat,32-H,Amsterdam,1017BM,52.3663234,4.890756,121186.83087854303,486608.7317370272,2423_9732,ChIJoZkNqjUJxkcRodxkWA_Hf4s
Cafe Keffer,Beursstraat,1,Amsterdam,,52.3752551,4.8974194,121647.38485637715,487599.4120096937,2432_9751,ChIJUTIRZrgJxkcRVC_gh-jhGu4
La Madonnina,Rembrandtplein,12A-14,Amsterdam,1017 CV,52.3658484,4.8955024,121509.74510041071,486553.67801019654,2430_9731,ChIJKYp_RJUJxkcRYlDySXnEmm8
Indrapura,Rembrandtplein,40,,1017,52.3657294,4.8970859,121617.50741505434,486539.7071807045,2432_9730,ChIJPatPcJUJxkcRQsCYUQG2l90
Eetsalon Van Dobben,Korte Reguliersdwarsstraat,5-7-9,Amsterdam,1017 BH,52.3659827,4.8950785,121480.97482726225,486568.8165852135,2429_9731,ChIJl7ekWpUJxkcReqzKZ4Z3aPA
Cafe de Barones,Torensteeg,2,Amsterdam,1012TH,52.3744591,4.8901384,121150.97527254248,487514.222359238,2423_9750,ChIJg7plj8YJxkcRo2BQm8Mg8Hc
De Kroon,Rembrandtplein,17-I,Amsterdam,1017 CT,52.3664988,4.8967404,121594.55474624313,486625.472081993,2431_9732,ChIJiQZfe5UJxkcR48yyAwARZ_E
Wissenkerke-Sloterdijk,Radarweg,236,Amsterdam,1043 NV,52.3871186,4.835454,117437.88857861015,488949.70055371255,2348_9778,ChIJRW7mBVnixUcRbvzoy0gEP2Y
Bella Vita,Burgemeester de Vlugtlaan,188,,1063 BS,52.3815999,4.8220792,116522.58623147158,488342.6918125175,2330_9766,ChIJUwUkalLixUcR2IsxtGowWK4
Peper & Zout,,,,,52.3622867,4.8742446,120059.07706192277,486167.42896563484,2401_9723,
Anmol,,,,,52.3622297,4.8759194,120173.11159822831,486160.2808878444,2403_9723,
De Koffie Salon,,,,,52.3632404,4.874655,120087.78195165777,486273.34242995904,2401_9725,
Café Black & White,Borgerstraat,228,Amsterdam,1053RE,52.3639667,4.8612517,119175.42050297461,486360.6933885628,2383_9727,ChIJgRGe9AvixUcR2NkDQ8GMPlA
Ton Ton Club,Polonceau-kade,27,Amsterdam,1014DA,52.3860627,4.8661218,119524.8128423375,488816.7625487659,2390_9776,ChIJEVazjX7ixUcRfzdRrh1E6KE
Café Kale,Weteringschans,267,Amsterdam,1017XJ,52.3594947,4.8973945,121633.83804729728,485845.87448061456,2432_9716,ChIJS5BNu5MJxkcR7D9mEPE0_nk
l'Affiche,,,,,52.3665772,4.8747722,120098.38990774895,486644.5475289228,2401_9732,
Cobra Café,Hobbemastraat,18,Amsterdam,1071 ZB,52.3589397,4.8842999,120741.41165869196,485790.23247898475,2414_9715,ChIJ1RwvWe4JxkcRRDkroDqK3I8
Café Heuvel,Prinsengracht,568,Amsterdam,,52.3624354,4.8879212,120990.77526661546,486177.468170077,2419_9723,ChIJLaW8nVAJxkcRB8tH38OGniU
Gruter,,,,,52.3570184,4.8749907,120105.75517920223,485580.9045892017,2402_9711,
La Boutique del Caffe Torrefazione,1e Jacob van Campenstraat,38,Amsterdam,1072 BG,52.3573711,4.8891555,121070.97756614484,485613.4217706905,2421_9712,ChIJhVaZmu0JxkcRErbwsgAo38U
Waaghals,,,,,52.3571106,4.8890623,121064.42931774764,485584.481473442,2421_9711,ChIJTab11kqkx0cRfteE33OFUsI
De Biertuin,Linnaeusstraat,29,Amsterdam,1093 EE,52.3622606,4.92412,123456.33496012037,486141.6493599235,2469_9722,ChIJMVoEUXQJxkcRaEBZ7Kl4pyM
Sweet Asia,,,,,52.3631525,4.9289933,123788.90926458714,486238.77516198193,2475_9724,ChIJAd0T5EO2JIgR6E5uLw2cxHY
De Groene Olifant,,,,,52.3640109,4.9200038,123177.21364993152,486338.19243875926,2463_9726,ChIJ-xTdupwJxkcRIDijhVU_jrE
Bedford - Stuyvesant,Javastraat,55,Amsterdam,1094HB,52.3638643,4.9344159,124158.75945495773,486315.65099393524,2483_9726,ChIJb2QJYG0JxkcRypDAeh8yU7I
De Jaren,Nieuwe Doelenstraat,20,Amsterdam,1012CP,52.3680203,4.8953278,121499.49320802974,486795.4107059172,2429_9735,ChIJoa4hjb8JxkcRehItw0EaWz8
Sphinx,,,,,52.3685263,4.9231091,123391.94115814044,486839.23107645573,2467_9736,
Time Out,Rijnstraat,163,Amsterdam,1079HD,52.342546,4.9069288,122270.81529887681,483955.77027197444,2445_9679,ChIJq6q-rCkKxkcR6OPOcvZE88E
As,Prinses Irenestraat,19,Amsterdam,1077 WT,52.3415463,4.8802689,120453.28355552192,483856.91287636105,2409_9677,ChIJGQ2gZhwKxkcRjuYWvM2egB4
Harbour Club Café,Olympisch Stadion,35,Amsterdam,1076 DE,52.3424865,4.854536,118700.43298163357,483974.09698176093,2374_9679,ChIJiQryqfnhxUcRHRyqlOdgJEA
Sing Sing,,,,,52.3511404,4.8633086,119305.20554318996,484932.592453149,2386_9698,
Gambrinus,Ferdinand Bolstraat,180,Amsterdam,1072 LV,52.3512974,4.8912207,121207.04037233666,484936.6811302922,2424_9698,ChIJ26H-EQPixUcRraaudK-8b2E
Fonk,Dusartstraat,51,,1072 HN,52.3512963,4.8894806,121088.48284878375,484937.3714372741,2421_9698,ChIJf4GMZPMJxkcRDad6DyDbAyE
cafe BUHRS,van der Helstplein,7,Amsterdam,1073AR,52.3518527,4.8950989,121471.68984337928,484996.6642258409,2429_9699,ChIJgYj0iowJxkcReaFgKrDGlBs
Volt,Ferdinand Bolstraat,178,Amsterdam,1072 LT,52.3514961,4.8911767,121204.19385487912,484958.8095181731,2424_9699,ChIJwSEnUPMJxkcRrs8Czp5NV_M
Dusart,,,,,52.3511266,4.8895103,121090.37672415581,484918.4762864818,2421_9698,ChIJP57WolFFK4cRcbvxgi42GDc
Le Pain Quotidien,Cornelis Troostplein,4,Amsterdam,1072JK,52.3511182,4.8912435,121208.45735538744,484916.7322482965,2424_9698,ChIJJRgcV_MJxkcRr3Y3ee726PA
Pata Negra,,,,,52.3605996,4.925171,123526.74616210558,485956.3845671407,2470_9719,
Meram,Pretoriusstraat,22,,,52.355989,4.9255604,123550.00394203019,485443.2264972191,2471_9708,ChIJE5_6SncJxkcRJncoRXOFCMY
Café Maxwell,Beukenplein,27,,1092BB,52.3567889,4.9186348,123078.77250050633,485535.2532392974,2461_9710,ChIJMXW8ZZ0JxkcRSx9YH8EPeQ4
ThaiCoon,Beukenplein,10,,1091KG,52.3571259,4.9177233,123016.92053107318,485573.1506524829,2460_9711,ChIJCX86DZ0JxkcRKZPIU8KTCyI
Little Collins,Eerste Sweelinckstraat,19F,Amsterdam,1073CL,52.3558475,4.8980656,121676.81446569083,485439.7681991927,2433_9708,ChIJNxPl9Y0JxkcRiXF6kIukt5o
Kingfisher,,,,,52.3566892,4.8904847,121161.00640337873,485536.93034761515,2423_9710,ChIJ12UXMsEarocRfkJxifyLW8c
Het Paardje,Gerard Douplein,1,Amsterdam,1073 XE,52.3561778,4.8927389,121314.18297222856,485478.9805663263,2426_9709,ChIJEW6xqpIJxkcRYbU66gkPlk4
Café-Restaurant Dauphine,,,,,52.3483698,4.9173053,122982.12912421188,484599.10706724843,2459_9691,ChIJIaOF54EJxkcR2HIx7og1zpY
de Plek,Lekstraat,11,Amsterdam,1079 EK,52.3451944,4.9082519,122362.92579283874,484249.84138146375,2447_9684,ChIJ9XDKZIcJxkcRJNRwib7FaHk
Kong Kha,Rijnstraat,87,Amsterdam,1079 GZ,52.3452521,4.9058841,122201.62284933121,484257.3299691617,2444_9685,ChIJseN9i4cJxkcRvvn_p_ZfFcE
I Trulli,Rijnstraat,101,,1079HA,52.3445658,4.9061298,122217.85842046376,484180.8593445092,2444_9683,ChIJmxCVJigKxkcROWxEVrqeAck
Pizzeria San Marco,Amstelkade,148A,Amsterdam,1078 AW,52.3481204,4.8909926,121189.07951475098,484583.3064291267,2423_9691,ChIJRxbKK_UJxkcRtGgc1xC1neU
Kong Ming,Rijnstraat,67,Amsterdam,1079 GW,52.3457197,4.9056866,122188.51052134194,484309.4457186769,2443_9686,ChIJu8XX7IcJxkcRlS_a-p3mw3I
Papa,,,,,52.3482353,4.9047332,122125.40816112416,484589.7698405249,2442_9691,
Phukradung,,,,,52.3514674,4.9034904,122043.12752412281,484949.9461631379,2440_9698,ChIJeVMGQBufITERRElU4xe9EVk
Frango,,,,,52.353296,4.9027669,121995.19390092409,485153.73030706006,2439_9703,
Sarphaat,,,,,52.3543825,4.8992429,121755.92084254675,485276.22770809213,2435_9705,ChIJN2Rj2I8JxkcRnbwbrmS-6Oc
Vermeer,Prins Hendrikkade,59-72,,,52.3764859,4.9004724,121856.1997309189,487734.9540737656,2437_9754,ChIJQ_tKzrkJxkcRYKxi_rC_ghg
Kamerz,,,,,52.3842987,4.8744439,120089.98116823439,488616.45268218097,2401_9772,
Café-Restaurant Amsterdam,Watertorenplein,6,Amsterdam,1051PA,52.3842205,4.8682145,119665.81295097574,488610.77112857625,2393_9772,ChIJe3hOLH_ixUcRRLECWCyvFZE
Al Ponte,,,,,52.381905,4.9082272,122388.23626118923,488334.3828042933,2447_9766,ChIJh9mIMgJwgUcRhiRXTSFvbRI
Dok du Nord,Noordwal,1,Amsterdam,1021 PX,52.3811001,4.9128268,122700.81468054716,488242.7669529837,2454_9764,ChIJJ0F35cAJxkcRaa25XFuUHwI
Kinnaree Thai Cuisine,Anjeliersstraat,14,Amsterdam,1015NR,52.3780567,4.8833969,120694.68532662759,487917.67248825415,2413_9758,ChIJS4A7_s8JxkcRCpYVSxLVoDk
Joya,Spuistraat,3G,Amsterdam,1012SP,52.3770954,4.8942271,121431.39697002947,487805.64353060984,2428_9756,ChIJVShQ2ccJxkcRswfit9OH5f0
Moods,,,,,52.3794724,4.8806733,120510.33373701005,488076.4804498086,2410_9761,
Big Shots,Nieuwezijds Voorburgwal,89,Amsterdam,1012RE,52.3749624,4.8921529,121288.53829369239,487569.2820757506,2425_9751,ChIJd6VVVsYJxkcRezesOAws9Rk
In't Aepjen,Zeedijk,1,Amsterdam,1012AN,52.3763121,4.9001456,121833.8168193178,487715.76603903103,2436_9754,ChIJgZ3EzrkJxkcRpZKAL_eiIWk
Skek,Zeedijk,4,Amsterdam,1012AX,52.3760606,4.9001777,121835.81457307447,487687.76865589153,2436_9753,ChIJa9q6yLkJxkcR3cdEXkDX2Ak
Park Plaza Brasserie,,,,,52.3770851,4.8979096,121682.13992578996,487802.7981361714,2433_9756,ChIJMQT3czDExUcRvz-gog3flfc
Stock,Damrak,50,,,52.3753858,4.8956474,121526.81854215618,487614.7710859388,2430_9752,ChIJK6OdiMcJxkcRCDzw6tyN1u8
Geheim van de Smidt,Zeedijk,21,Amsterdam,1012AP,52.3757843,4.9007535,121874.81681629793,487656.76329403726,2437_9753,ChIJM_hWv7kJxkcRS0Ad6RCSTb8
Bravi Ragazzi,,,,,52.3759544,4.8963754,121576.82028647144,487677.6993131074,2431_9753,
Durty Nelly's,Warmoesstraat,117,Amsterdam,,52.3741125,4.8965373,121586.45720977042,487472.6890788748,2431_9749,ChIJGwYFhbgJxkcRFyz-UYe2rc4
Irish Pub Slainte,,,,,52.3746948,4.8973185,121640.09262315468,487537.11771033896,2432_9750,ChIJyXqvX7gJxkcR_mbT67cO9_k
Chao Phraya,,,,,52.3729121,4.8998889,121813.79337938811,487337.58881939965,2436_9746,ChIJQ_Priz-h4jAReAUun6ZUSeU
A Fusion,,,,,52.3732425,4.9001515,121831.923225495,487374.22993921104,2436_9747,
Nam Kee,Zeedijk,111-113,,1012 AV,52.3737013,4.9003096,121843.03255203235,487425.2051194311,2436_9748,ChIJXyeLEbkJxkcRksuq13k4dRA
Wing Kee,Zeedijk,78,Amsterdam,1012CR,52.3744999,4.9004584,121853.7622848782,487513.9918019516,2437_9750,ChIJIVumoLkJxkcRafP0UcXlMf0
Cafe Stevens,Geldersekade,123,Amsterdam,1011EN,52.3728379,4.9011235,121897.81298420082,487328.7684703904,2437_9746,ChIJUQbHQ7kJxkcRhGvmZfXVAaM
Nam Kee,,,,,52.3729769,4.9011882,121902.32271156371,487344.2044949149,2438_9746,
Cotton Club,,,,,52.3726299,4.9010196,121890.58223392213,487305.67320302705,2437_9746,
Café Poco Loco,,,,,52.3725409,4.8996205,121795.23774904858,487296.4108907062,2435_9745,ChIJo01p46VtyzAROcOGPQUqAoY
Geweaght Café,Nieuwmarkt,16,,1012CR,52.3727127,4.8997837,121806.48015355415,487315.4511322445,2436_9746,ChIJOfxKO7kJxkcRLK7AEwKGFV0
Greenhouse Effect,Nieuwmarkt,14-H,Amsterdam,1012CR,52.3728238,4.8998311,121809.7911891551,487327.7907553095,2436_9746,ChIJsyGhPLkJxkcR5doRfl-O2L4
Coffeeshop Rock-it,,,,,52.3728646,4.8998649,121812.12346499105,487332.31481158664,2436_9746,ChIJL3OSPLkJxkcRS1utQD5uvDY
Cafe Otten,Reguliersbreestraat,44,Amsterdam,1017CN,52.3662983,4.895425,121504.81306866222,486603.7709714607,2430_9732,ChIJ17gfWpUJxkcRng8vlcBWlGo
Ter Marche & Co,Vijzelstraat,2,Amsterdam,,52.3665599,4.8930568,121343.7155750188,486633.9744727416,2426_9732,ChIJZ8W7oeoJxkcRGrZmhOVZzTE
El Torado Grill,Reguliersbreestraat,25,Amsterdam,1017CL,52.3666908,4.8947159,121456.81366803127,486647.7696268554,2429_9732,ChIJbRzW_78JxkcR0ArnME3OxQs
Kitchen & Bar Van Rijn,,,,,52.3664515,4.89674,121594.49188756473,486620.20952883834,2431_9732,ChIJ0XTn41pvxkcRi_XM4zHf8Y8
Subway,Reguliersbreestraat,27,Amsterdam,1017CL,52.3666732,4.8948042,121462.81434322162,486645.77053552953,2429_9732,ChIJ97N5VZUJxkcRlyIDab-HFbY
Rain,,,,,52.3657475,4.8972735,121630.29846055455,486541.63464753464,2432_9730,
The Old Bell,,,,,52.365769,4.897453,121642.54036174642,486543.944169545,2432_9730,
Cafe Eik en Linde,Plantage Middenlaan,,Amsterdam,,52.3665415,4.9109737,122563.99930702294,486623.7578131163,2451_9732,ChIJuYWkh6IJxkcRGglnwwbNL1c
Planetariumcafé,,,,,52.3673089,4.9131881,122715.3778652993,486708.15237072756,2454_9734,
Tours & Tickets,,,,,52.372343,4.8926487,121320.31131021396,487277.6090442671,2426_9745,
Bern,,,,,52.3724859,4.9009348,121884.6999014606,487289.69005879294,2437_9745,ChIJdxs61MA5jkcRmmVXBP5fVcs
Café Fonteyn,Nieuwmarkt,15,Amsterdam,1012CR,52.3723885,4.9008776,121880.73188058722,487278.8791697176,2437_9745,ChIJYUEzRrkJxkcRbecAPkzwvYU
Song Kwae,Kloveniersburgwal,14,Amsterdam,1012 CT,52.371915,4.8991163,121760.43295345927,487227.00244738604,2435_9744,ChIJReRAK7kJxkcRhBLPx_3JtFI
Temple Bar,Kloveniersburgwal,,Amsterdam,,52.3721371,4.8993518,121776.63696688741,487251.6059948625,2435_9745,ChIJyWIvLLkJxkcR-CRKO5uzzXw
De Bekeerde Suster,Kloveniersburgwal,6-8,Amsterdam,1012 CT,52.3720321,4.8992627,121770.490586426,487239.96421939594,2435_9744,ChIJAwdCLLkJxkcRFdfSU_U6Ihw
Café 't Loosje,,,,,52.3723799,4.8995,121786.91120631743,487278.5527471882,2435_9745,ChIJcSO5L7kJxkcR-ghN1cETMhw
Café Del Mondo,Nieuwmarkt,,Amsterdam,,52.3724585,4.8995457,121790.0822126844,487287.2770845354,2435_9745,ChIJn0zxL7kJxkcRmnTX-tghMZE
Down Town Burger,Nieuwmarkt,26,Amsterdam,1012CS,52.3724981,4.8995992,121793.75518886873,487291.6585889832,2435_9745,ChIJx1VURLgJxkcRqPQHsEfi5Yw
Toko Joyce,,,,,52.3723193,4.8994598,121784.12821708331,487271.82862701884,2435_9745,
Café Scharrebier,,,,,52.3704414,4.9111074,122575.95592515242,487057.6129410646,2451_9741,ChIJqVdCcaMJxkcRPMUJwfpw2UA
de Kluis,,,,,52.371134,4.9117046,122617.1325199219,487134.40678952506,2452_9742,
De Druif,Rapenburgerplein,83,,1011,52.3700817,4.9106387,122543.77297208826,487017.801385119,2450_9740,ChIJ71zHbKMJxkcRZppZEJS8u6Q
Le Coeur,Hartenstraat,24,Amsterdam,1016CC,52.3723921,4.8856813,120845.87067660953,487286.3327953122,2416_9745,ChIJpzV9MHAJxkcR3In7KbqArb8
Nova & Kim,,,,,52.3526542,4.8889175,121051.15631653678,485088.71847955766,2421_9701,
Hermes,,,,,52.3526942,4.8892794,121075.84314466982,485092.9995388798,2421_9701,
Brasserie Bark,Van Baerlestraat,120,Amsterdam,1071 BD,52.3551572,4.88034,120468.71878039809,485371.2607334129,2409_9707,ChIJF-Jka_AJxkcRrMQC7qop15g
Wildschut,Roelof Hartplein,1,Amsterdam,1071 TR,52.3534426,4.8824008,120607.78445712177,485179.51010956883,2412_9703,ChIJr85cAvEJxkcRSKv5cLO2_pg
Ristorante Sardegna,,,,,52.3553896,4.87131,119853.72400656852,485401.4585819094,2397_9708,ChIJkTWNRI3E3RIRMWar5LZ0ljM
,,,,,52.3547966,4.888873,121049.76341683281,485327.108333657,2420_9706,
Club Smokey,,,,,52.3656246,4.8962329,121559.33061456334,486528.44006107084,2431_9730,ChIJPZM2948JxkcRI63ngVEDLiQ
Coffeeshop Smokey,,,,,52.3656427,4.8963993,121570.67777897295,486530.37715540925,2431_9730,ChIJ15V3aZUJxkcROIIfdVHPAlo
De Magere Brug,,,,,52.3636562,4.9032166,122033.52893069238,486306.23067535844,2440_9726,ChIJmSIs9ZYJxkcRkx-Ou1QOZFI
Water en Brood,,,,,52.3641405,4.9058121,122210.67463101399,486358.9379209357,2444_9727,ChIJ9w5tmJcJxkcRXUK-bEqluNY
Puyck,,,,,52.3532883,4.8937863,121383.34809258778,485157.0008207641,2427_9703,
Stigter,,,,,52.3529885,4.8941377,121407.06173176058,485123.481363975,2428_9702,
Kam Kee,Ceintuurbaan,119,Amsterdam,1072 EZ,52.3531295,4.892503,121295.79747137113,485139.9282781146,2425_9702,ChIJ19JZ0YwJxkcRedLa9Zk5580
Lust,,,,,52.3507166,4.8890862,121061.1682873511,484873.0571340091,2421_9697,
Bax,,,,,52.3656085,4.8679756,119634.71110004485,486540.0620926372,2392_9730,
Groot Melkhuis,Vondelpark,2,Amsterdam,1071AA,52.3585322,4.8683025,119651.33921157323,485752.5748176626,2393_9715,ChIJgcR47OIJxkcR6JS-5U83nMA
Hasta la Pasta,Zoutsteeg,7,Amsterdam,1012LX,52.3741285,4.8937376,121395.81789778915,487475.7637920158,2427_9749,ChIJc3cODscJxkcR9jEtPSiRMaU
Players,,,,,52.3737173,4.8955245,121517.19014476264,487429.1853385528,2430_9748,
Zizi Snackbar,Maritzstraat,31,,1091KW,52.3546056,4.9197977,123156.42715502545,485291.8214972125,2463_9705,ChIJm-2Q93cJxkcRcX7cJhREp10
Café Oost,Krugerplein,40,,1092JZ,52.3534384,4.919777,123154.17943058089,485161.96461016656,2463_9703,ChIJzYv8bHgJxkcRrdpeOb7JbDg
snackbar 't Snorretje,Krugerplein,11,,,52.3544607,4.9203864,123196.42977988355,485275.4410409174,2463_9705,ChIJ09EaGXgJxkcRtJiqJAX2S3I
Mojo,,,,,52.3548104,4.9280958,123721.89760306885,485310.9949289247,2474_9706,
La Vallade,,,,,52.35425,4.9269471,123643.24432977689,485249.13951385225,2472_9704,ChIJTSo4Jg1k-UcRV4N2p8oFMjk
Hap Li,,,,,52.3840908,4.8483627,118314.16733439005,488606.20526862954,2366_9772,ChIJ3zbO0GbixUcR7lZDQiItMRU
Marius,Barentszstraat,173,Amsterdam,1013NM,52.3888328,4.8876376,120991.70442217028,489114.65756373754,2419_9782,ChIJ2QUrzjIIxkcRZXIxWjtvytA
Le Caféier,Rozengracht,144,Amsterdam,1016 NJ,52.3730856,4.8787709,120375.81600532144,487366.7727887641,2407_9747,ChIJL8fGg9sJxkcRxhOodK56OJo
Ristorante Italiano Piccolo Mondo,,,,,52.3740711,4.9017078,121938.52246696505,487465.71145652747,2438_9749,ChIJu96XbQ0v6IkRkEr0SQwihNg
Febo,,,,,52.3759348,4.8669783,119575.03251214964,487689.4825040216,2391_9753,
Sugar 'n Bakery,Spuistraat,124,Amsterdam,1012 VB,52.3743858,4.8900649,121145.914230215,487506.1011075848,2422_9750,ChIJy9hQhcYJxkcRgEmomTs90dY
Bar Botanique Cafe Tropique,Eerste van Swindenstraat,581,Amsterdam,1093LC,52.3634368,4.9303211,123879.55053393426,486269.83631250326,2477_9725,ChIJx8jIHXMJxkcRbXr3CkT35hM
À Deauville,Strawinskylaan,3003,Amsterdam,1077ZX,52.340197,4.8699178,119746.81565661315,483711.77045876125,2394_9674,ChIJixRdoAYKxkcRWe_WEB08CVk
Kiosk,Ringweg Zuid,,Amsterdam,,52.3392121,4.8735401,119992.89548748021,483600.4328430321,2399_9672,ChIJKdiK8AQKxkcReOookqHixPw
Burger King,Leidseplein,7,Amsterdam,1017 PR,52.364178,4.8835118,120691.77653887476,486373.4329066587,2413_9727,ChIJ30h8-egJxkcR5I-GThDkU2s
Burger King,,,,,52.3463966,4.9181737,123039.87844824637,484379.1803227257,2460_9687,
Burger King,Nieuwendijk,218,Amsterdam,1012MX,52.3737828,4.8927282,121326.81828166002,487437.7686677225,2426_9748,ChIJxZMPHMcJxkcR_2wEzdd8IFM
Burger King,Reguliersbreestraat,15-17,Amsterdam,,52.3668263,4.8943072,121429.08026150378,486663.0349891421,2428_9733,ChIJXSuTAcAJxkcRCosVFDjohWo
McDonald's,Muntplein,9,Amsterdam,1017CK,52.3666856,4.8934827,121372.81834013651,486647.76252736023,2427_9732,ChIJFe92p-oJxkcRc4HwjgVoxD4
Weesper,Weesperzijde,144,Amsterdam,1091ET,52.3489945,4.9131084,122696.62076624867,484670.4749705478,2453_9693,ChIJVXIdaoEJxkcRRJH2-L4Y8nA
Eiburgh Snacks,,,,,52.3707789,4.9630011,126110.28770063438,487073.213525131,2522_9741,ChIJhWBgkC8JxkcR3wHsL29_Jss
Burger King,,,,,52.392326,4.8504678,118464.27285085792,489521.41541163396,2369_9790,
McDonald's,Leidsestraat,97,Amsterdam,1017NZ,52.3645956,4.8837866,120710.81653859999,486419.7662073538,2414_9728,ChIJ9UiAVugJxkcR1T-66NlmXxQ
Hole in the Wall,,,,,52.3646169,4.8828946,120650.0774320723,486422.5584956495,2413_9728,
Reijnders,,,,,52.3645684,4.8829627,120654.67828911179,486417.129975669,2413_9728,
Le Pub,,,,,52.3644921,4.883103,120664.17531192217,486408.57414644206,2413_9728,
de Oesterbar,,,,,52.3647013,4.8827741,120641.93534117921,486432.0061944146,2412_9728,ChIJ_RhWXugJxkcR7o8smE5HOy0
Greek,,,,,52.3643571,4.8841943,120738.40148776965,486393.0372166427,2414_9727,
Los Amigos,,,,,52.3642942,4.8842525,120742.31704079875,486386.0112745547,2414_9727,
O' Sole Mio,Lange Leidsedwarsstraat,19,Amsterdam,1017 NE,52.3644198,4.8841433,120734.97619745409,486400.03750535665,2414_9728,ChIJT-yP_-gJxkcRQmqC4WvANMk
Pisa,,,,,52.3644852,4.8839811,120723.97896703225,486407.39079022635,2414_9728,ChIJj1n28JqR1RIRyHiEp7UPuKo
Royal Thai,Lange Leidsedwarsstraat,94,Amsterdam,1017NM,52.3641694,4.8841341,120734.15618111617,486372.18164782657,2414_9727,ChIJFZCOAekJxkcRiXsPM_3ZNNo
Do Brasil,Lange Leidsedwarsstraat,86,Amsterdam,1017 NM,52.3641938,4.8840332,120727.3024967686,486374.94416947773,2414_9727,ChIJWSQW_ugJxkcRilDxdYyaztE
Bombay inn,,,,,52.3651399,4.8826496,120633.79519737513,486480.8650915324,2412_9729,ChIJ96GtaXwNGToR-IJTWyjs8f4
The Guru of India,,,,,52.3650182,4.8828626,120648.20857317508,486467.22342832276,2412_9729,ChIJkbeSa_BfYzARphNChaFPjNc
Coffee Company,,,,,52.3641034,4.9392432,124487.72581613452,486340.2108607821,2489_9726,
Thai Tiger,,,,,52.3639298,4.940096,124545.69313491695,486320.53689943807,2490_9726,
,,,,,52.3642858,4.9607118,125950.12947051038,486351.68407525413,2519_9727,
La Suite,Wijttenbachstraat,10,,1093HR,52.360026,4.9259729,123580.96383719727,485892.2161898389,2471_9717,ChIJx200qHYJxkcRcRmiGz4aMg0
Lin Wah,,,,,52.359298,4.9254798,123546.85842619915,485811.4305911189,2470_9716,
Hallo,Linnaeusstraat,14-A,Amsterdam,1092 CK,52.3596019,4.9252891,123534.08343775618,485845.32618692564,2470_9716,ChIJ62thpHYJxkcRK-Ho5Ub8MN8
David's coffee and nuts,,,,,52.3595338,4.9253242,123536.42614745483,485837.7339394465,2470_9716,
Marits,Andreas Bonnstraat,34H,Amsterdam,1091BA,52.3593177,4.9135842,122736.54505925931,485818.85112037446,2454_9716,ChIJiSvDDJwJxkcReJLYCpV17UA
,,,,,52.3609287,4.9237018,123426.9014003536,485993.64021621895,2468_9719,
,,,,,52.3610859,4.92132,123264.77166276438,486012.1709705218,2465_9720,
,,,,,52.3587042,4.9174952,123002.5196381336,485748.85757310456,2460_9714,
,,,,,52.3604438,4.9188363,123095.12728318876,485941.8194032314,2461_9718,
,,,,,52.3597722,4.9171036,122976.614238379,485867.85933476064,2459_9717,
,,,,,52.3584784,4.9233913,123404.0063126205,485721.14782303956,2468_9714,
Sranang Makmur,Wijttenbachstraat,14,,,52.3600469,4.9260867,123588.73055786834,485894.4922623846,2471_9717,ChIJ1S_LA3QJxkcRZAupiZDu8dY
Elsa's,,,,,52.3530935,4.9319632,123984.1717381029,485118.30578299577,2479_9702,
Maan,,,,,52.3537104,4.930985,123917.95945336278,485187.36288563814,2478_9703,
,,,,,52.3476641,4.9350543,124190.99870139448,484512.89703221305,2483_9690,
Lago,,,,,52.3477529,4.9397697,124512.35709666187,484520.7834444738,2490_9690,
Safak,,,,,52.3563165,4.9278999,123709.61343352268,485478.65257431933,2474_9709,
Ruk en Pluk,,,,,52.3574175,4.9266814,123627.38198899831,485601.67979964684,2472_9712,ChIJcco0KHEJxkcRHSDCjsX0LkQ
Q Cafe,,,,,52.3574859,4.9303841,123879.66853019047,485607.69397132687,2477_9712,ChIJfYw7Ey607YgRJ_0IhoLZjtw
Blend Coffee and Wine,,,,,52.3564901,4.9303661,123877.74398899259,485496.9060305628,2477_9709,ChIJYwuQRXAJxkcRqXa5YEQ7F1g
Michel-Inn,Steve Bikoplein,12,,1092GN,52.3552513,4.9228914,123367.6523831368,485362.3092887386,2467_9707,ChIJL1mRe3cJxkcRyN7OWczjYo4
Meram Cafe,Linnaeusstraat,219,,1093EP,52.3563587,4.9278804,123708.3147593257,485483.3562887753,2474_9709,ChIJbc7X63AJxkcRYHpYEizlekI
Bru,,,,,52.3570397,4.9177655,123019.73321542624,485563.5411710608,2460_9711,
De blauwe Hollander,,,,,52.3635484,4.8847235,120773.82253861989,486302.8089487063,2415_9726,ChIJL0BoGukJxkcRrDuPyR4-IFQ
Mr Tong's,,,,,52.3633343,4.8848237,120780.48236437673,486278.94027079275,2415_9725,ChIJA3qZSjdewokRx72Fh5s62QA
il Palio,,,,,52.3633969,4.8849115,120786.51101006687,486285.86387074506,2415_9725,ChIJWezXpvQK6IkRnNGfM5G4zno
Lombardo's,Nieuwe Spiegelstraat,50,Amsterdam,1017DG,52.3635469,4.8887021,121044.81688544808,486300.7706422878,2420_9726,ChIJE_QVxusJxkcRh0nkvXNVXQM
Caprice,,,,,52.3633259,4.8856607,120837.48698144796,486277.61080547597,2416_9725,
El Patio Granada,,,,,52.3635176,4.8854166,120821.00812124996,486299.05497091764,2416_9725,ChIJfcIyLeb8cQ0Rcg1g0533WJI
Leeuw,,,,,52.3630944,4.8848025,120778.85332637913,486252.2583374779,2415_9725,
Madras,,,,,52.3630641,4.8848499,120782.05856097252,486248.86469531077,2415_9724,ChIJYTN9T-plUjoRM9RjaAunYW4
Pizzeria Rimini,,,,,52.3633664,4.8856026,120833.56076736831,486282.14433640364,2416_9725,ChIJRWGJMrLDLBMR6lixjZhx2PQ
Porto Carrara,,,,,52.3634013,4.8852647,120810.57209054206,486286.18675265135,2416_9725,ChIJnax2mOcF1RIR2TeAaCYCClk
Zero20 Amsterdam,Lange Leidsedwarsstraat,71,Amsterdam,1017NH,52.3634391,4.8854644,120824.20347233594,486290.2983002939,2416_9725,ChIJ__-zE-kJxkcRwjzVmrUPGFg
Crea Café,Nieuwe Achtergracht,170,Amsterdam,1018 WV,52.3633105,4.9131125,122707.31883870505,486263.3119078176,2454_9725,ChIJ7d5le8AJxkcRzTC4GUmFhmA
Wilde Zwijnen,,,,,52.3635809,4.9403751,124564.46412796428,486281.59993610054,2491_9725,
,,,,,52.3627828,4.948799,125137.70812991014,486189.2967403721,2502_9723,
KFC,Eerste van Swindenstraat,371,,1093GB,52.3628501,4.9276294,123695.7951403064,486205.7174052824,2473_9724,ChIJwS4feXMJxkcR010JrIKKOs0
Mondo mediterraneo,,,,,52.3711944,4.9314628,123962.7434291594,487132.48220472643,2479_9742,ChIJE1p2jw4JxkcRMB1rSaPzPN4
Het Pompstation,Zeeburgerdijk,52,Amsterdam,1094 AE,52.3658993,4.9339102,124125.73081133673,486542.2868590718,2482_9730,ChIJLbRQRA0JxkcRmBIpyM1uNmg
Maccheroni,Wittenburgergracht,143,Amsterdam,1018MX,52.3700035,4.9187102,123093.41307705738,487005.51656469336,2461_9740,ChIJU9RJ2aAJxkcRz5Cqplfex18
,,,,,52.3340333,4.9565757,125648.412887942,482987.3667646602,2512_9659,
Snackbar,,,,,52.334407,4.9577556,125729.079882533,483028.4685563172,2514_9660,
Cafe Spanje,President Steynstraat,7 HS,,1091NB,52.3512642,4.9163435,122918.6872225197,484921.57115447515,2458_9698,ChIJAV2SQIIJxkcRKVnptNMnTHM
Bam Boa,Weesperzijde,135,Amsterdam,1091 ES,52.3495777,4.9126835,122668.09468604055,484735.5528103309,2453_9694,ChIJhaWQJPwJxkcR54jGw_3fFLE
Presidente,President Steynstraat,5,,1091NB,52.3512674,4.9164823,122928.14629444528,484921.8657716346,2458_9698,ChIJL95XQYIJxkcRcMAs4rblQ50
East57,Eerste Ringdijkstraat,4,,1097 BC,52.350072,4.9183799,123056.57382668671,484788.0243442297,2461_9695,ChIJVVVFrHgJxkcRWVXulgvH7w0
Nest,Eerste Ringdijkstraat,4,,1097 BC,52.3501867,4.9182347,123046.76332267202,484800.8501787146,2460_9696,ChIJLxjBrXgJxkcRZ2d6BjBsUgM
,,,,,52.3399534,4.9169865,122954.33253365943,483662.817406919,2459_9673,
The Lobby,Fizeaustraat,2,Amsterdam,1097SC,52.3453343,4.9255508,123541.79959771362,484257.7589020787,2470_9685,ChIJRyW66n0JxkcRAO3hGrNP9Nc
Vishandel Rinkoen,Sumatrastraat,98,,1094NJ,52.3615654,4.9360954,124271.56324344692,486059.1548250888,2485_9721,ChIJd-jGsW0JxkcR_BOh1-S9mHM
Carmen's Food Corner,Celebesstraat,68,Amsterdam,1094 ET,52.3609273,4.9327573,124043.73829533423,485989.5782995424,2480_9719,ChIJ13gXDHIJxkcRGrSV1Yk-it4
McDonald's,Eerste van Swindenstraat,68,Amsterdam,1093GG,52.3625603,4.9277661,123704.90200150068,486173.4143306279,2474_9723,ChIJsVu5gnMJxkcRAETTOEVHxMw
Mi-Gudu,Wijttenbachstraat,390,Amsterdam,1093JK,52.3610354,4.9300561,123859.81516901641,486002.7629479046,2477_9720,ChIJn_rVynMJxkcRqd8wJLJXcFg
Ernos,Dapperstraat,299,,1093BS,52.3610186,4.9288172,123775.41279373644,486001.42672923114,2475_9720,ChIJV7g2wXMJxkcRLZk_jPzVyEs
Broodje Bonjour,,,,,52.3608087,4.9320704,123996.8655192722,485976.67609576485,2479_9719,
Ada Restaurant (closed),Jan de Jonghkade,82,Amsterdam,1063MJ,52.3791955,4.8227756,116567.91705656155,488074.80226488615,2331_9761,ChIJsVykE07ixUcRWoQ5GQNG_HE
Pacific Parc,Polonceaukade,23,Amsterdam,1014 DA,52.3859803,4.871489,119890.1391590017,488804.9804646905,2397_9776,ChIJ82Ku_mYJxkcRZWFK2mf5IyQ
Van de Buurt,Gerard Callenburgstraat,1,,1055 TV,52.3774711,4.859499,119066.98068033271,487864.09806838917,2381_9757,ChIJ132yYHDixUcRa-jAd1aklg0
Espressofabriek,,,,,52.386088,4.8719175,119919.3961187379,488816.7559856619,2398_9776,
De Bakkerswinkel,,,,,52.3858649,4.8746293,120103.83608421551,488790.6238149491,2402_9775,
Westergasterras,,,,,52.3871553,4.8697708,119774.09977107958,488936.5485998842,2395_9778,ChIJMVYWmX_ixUcRWE9x4VJrmro
Azur Bleu,,,,,52.3742612,4.8727615,119967.51290275218,487500.4615404837,2399_9750,
Orontes West,,,,,52.3748,4.8733,120004.6081263084,487560.1498447373,2400_9751,ChIJuTo8G9kJxkcRxCQx0PXRPT4
Buongiorno Espressobar,Admiraal de Ruijterweg,23,Amsterdam,1057 JT,52.3707262,4.8630949,119306.40445374303,487111.8642171309,2386_9742,ChIJe6Y3YnTixUcRL4rl4mVlEEY
,,,,,52.3865459,4.8723887,119951.83670916907,488867.47540571546,2399_9777,
Coffeeshop,Surinamestraat,7,Amsterdam,1058 GJ,52.3579398,4.8540529,118680.15928648732,485693.70816047356,2373_9713,ChIJmTHY-Q_ixUcRQ6V9Mm18u5U
Bodrum,Surinamestraat,3-5,Amsterdam,1058 GJ,52.3578853,4.8542078,118690.66675034331,485687.5667457936,2373_9713,ChIJUazz9g_ixUcR5wjT9P74cyo
Surabaya-Green,Surinamestraat,9,Amsterdam,1058 GJ,52.3579815,4.8539107,118670.50651449627,485698.41907250776,2373_9713,ChIJ2W76-Q_ixUcRu3smzIHQafc
ijsmanschap,Van Spilbergenstraat,2-hs,Amsterdam,1057RG,52.3644398,4.852355,118569.8325159201,486417.76657650794,2371_9728,ChIJc0aYQBLixUcRAQxnomRiRvc
Indian Dinner,Surinamestraat,26,Amsterdam,1058GK,52.3582024,4.8543856,118703.03818573339,485722.7590073953,2374_9714,ChIJPY6F8Q_ixUcR3IX6J84sQYM
Chow,,,,,52.373391,4.8793053,120412.4460393035,487400.49731777643,2408_9748,
Le Hollandais,Amsteldijk,41,Amsterdam,1074 HV,52.3550735,4.9055349,122185.08952557358,485350.24301767105,2443_9707,ChIJeYz--I8JxkcRVudwQG4JO5s
Café Loetje,Johannes Vermeerstraat,52,Amsterdam,1071 DT,52.3543672,4.8842366,120733.56915829374,485281.5139876344,2414_9705,ChIJ4cQymvEJxkcR7DCtnd76R0Q
,,,,,52.353923,4.8884673,121021.45557230612,485230.09941862646,2420_9704,
,,,,,52.3554942,4.9040726,122085.78033745699,485397.714297281,2441_9707,
Tjing Tjing,,,,,52.3505332,4.889167,121066.53322248218,484852.6137538513,2421_9697,
De Wasserette,Eerste van der Helststraat,27,,1073 AC,52.3558796,4.8931671,121343.12778395333,485445.60310878756,2426_9708,ChIJkwydVo0JxkcRQmuo1wd5phw
The Green House Pijp,Tolstraat,91-1,Amsterdam,1074VG,52.3523465,4.9034616,122041.81811435554,485047.7702745213,2440_9700,ChIJ9xJ5Eo8JxkcRWXDtQEarhUw
ctaste,Amsteldijk,55,,1074 HX,52.3541976,4.9062854,122235.57174632132,485252.4484585966,2444_9705,ChIJhy6gXYUJxkcR0NVQ6DNDAKQ
Café Pico,Ferdinand Bolstraat,72-H,Amsterdam,1072LM,52.3551804,4.8900018,121126.95780699022,485369.28280177107,2422_9707,ChIJK3Tjk_IJxkcRSDo5hzSmN-w
CC De Bol,Ferdinand Bolstraat,38,Amsterdam,1072 LK,52.3562952,4.890411,121155.68520100013,485493.12726270675,2423_9709,ChIJd5hfYu0JxkcR9EMIY9Q2X0k
Superskunk,Daniël Stalpertstraat,78-H,Amsterdam,1072XK,52.3560695,4.8910319,121197.81175351852,485467.7255306318,2423_9709,ChIJadYioPIJxkcR8CmEtdgTgkQ
Simpel,Ferdinand Bolstraat,11,Amsterdam,1072LA,52.3565041,4.8907851,121181.32974563609,485516.1954180183,2423_9710,ChIJC-5VYe0JxkcRFT-ky2rc9dw
Zaza's,Daniël Stalpertstraat,103,,1072XD,52.3561902,4.8921323,121272.86799896667,485480.6423189814,2425_9709,ChIJY_IxVu0JxkcRi3NPxcHUO4o
Kaagman & Kortekaas,Sint Nicolaasstraat,43,,,52.3748089,4.8924356,121307.67236815077,487552.0717223616,2426_9751,ChIJZ0trVcYJxkcRVmD__pxyz_g
Ashoka,Spuistraat,54D,Amsterdam,1012TV,52.3761624,4.8921696,121290.58752945958,487702.790052507,2425_9754,ChIJHcHVN8YJxkcRJYTuKUwUl5A
,,,,,52.3735089,4.8460747,118149.60486930779,487429.9938041785,2362_9748,
,,,,,52.3742507,4.8503847,118443.71778103491,487510.3456412211,2368_9750,
De Luwte,Leliegracht,26-28,,,52.3752896,4.88688,120929.72748229063,487608.15322203835,2418_9752,ChIJd9K1rcUJxkcR5mDqU_cw4tI
Almadina Snack,,,,,52.3770015,4.8171556,116183.33698645755,487833.6875479449,2323_9756,ChIJy6khzEzixUcRqGQz6nDgFSE
Hotel Buiten,Th.J. Lammerslaan,3,Amsterdam,1064 DH,52.3713573,4.8212845,116459.57906846862,487203.4959384534,2329_9744,ChIJa7uPO0rixUcRP3kTRXf2w-w
Rotonde Kebab - Amsterdam,Slotermeerlaan,3,,,52.3750257,4.818401,116266.41359523204,487613.1886360025,2325_9752,ChIJTWOQYUvixUcRXW58eK3Ci7w
De Waard,Leidseplein,14,Amsterdam,1017 PT,52.3646222,4.8825237,120624.81893835712,486423.32404163975,2412_9728,ChIJc4TfX-gJxkcRCpD0LcOkQAo
Café Mokum,Leidseplein,18,Amsterdam,1017 PT,52.3645793,4.8824163,120617.47050592862,486418.6018126481,2412_9728,ChIJc4TfX-gJxkcRTZKzmUsl1SI
Dan Murphy's Irish bar,Leidseplein,24,,1017 PT,52.3645054,4.8822704,120607.47572694097,486410.4487168719,2412_9728,ChIJ-4xviugJxkcRyw5ePa1mRUg
Plan B,,,,,52.3610861,4.8699879,119768.1780017498,486035.907712598,2395_9720,
Biblos Bar,Lijnbaansgracht,243-H,Amsterdam,1017PH,52.364557,4.8821452,120598.98813979141,486416.2492968951,2411_9728,ChIJoWKXe-gJxkcR_XimMzV4vC0
Le Tambourin,Paulus Potterstraat,,Amsterdam,1071 CX,52.3582736,4.88121,120530.4092161299,485717.5854201398,2410_9714,ChIJX1rTlu8JxkcR57FOtWX6lvk
Sawadee ka,Overtoom,49-H,Amsterdam,1054HB,52.3629744,4.876817,120234.83535417973,486242.70728986704,2404_9724,ChIJ0Q_BjuYJxkcRYr4DbXyamKM
Tweedy,,,,,52.3616608,4.8737899,120027.6117751417,486098.00896376173,2400_9721,
Constantijn,,,,,52.363192,4.87469,120090.1278495587,486267.9404554646,2401_9725,
Vlaamsch Broodhuis,Eerste Constantijn Huygensstraat,64,,1054 BR,52.3639067,4.8741907,120056.68152488244,486347.70053652447,2401_9726,ChIJKdWUzOYJxkcRa3OIZ3090jI
,,,,,52.3549735,4.8805608,120483.61815913006,485350.71662685805,2409_9707,
,,,,,52.341308,4.9126229,122657.9415299081,483815.471557953,2453_9676,
Rejo Snacks,,,,,52.3417789,4.8419802,117844.22025736514,483901.7298963796,2356_9678,
Cafe Caron,Frans Halsstraat,28-H,Amsterdam,1072BS,52.3573983,4.8887898,121046.08587826167,485616.61936968536,2420_9712,ChIJycmSme0JxkcReMbks4jH_ZU
Cafe Brecht,Weteringschans,157,,1017SE,52.35981,4.8901195,121138.50902187134,485884.3296011202,2422_9717,ChIJuSc29uwJxkcRoiEBH4MzFv8
,,,,,52.3622159,4.8977654,121661.14818802592,486148.47221580026,2433_9722,
Ah Lung,Van Woustraat,9,Amsterdam,1074 AA,52.3573548,4.8997029,121789.48379584297,485606.7230509707,2435_9712,ChIJU-ZmipEJxkcRAPHb0bU8HDk
Taproom,Nieuwe Vijzelstraat,1,Amsterdam,1017HT,52.3598666,4.8912454,121215.24734081501,485890.1016551924,2424_9717,ChIJ5WP46-wJxkcR4LKigncM378
,,,,,52.3569617,4.8905324,121164.46367636241,485567.22716146766,2423_9711,
Locals Coffee,Eerste Jacob van Campenstraat,27,Amsterdam,1072BC,52.3575639,4.8890537,121064.19010532973,485634.9208770807,2421_9712,ChIJuUt2ou0JxkcRHTmJQEjNvMQ
De Taart van m'n tante,Ferdinand Bolstraat,10,,,52.3572817,4.8905157,121163.57000651454,485602.8390200677,2423_9712,ChIJYbXybO0JxkcRpyoj-eGEp2I
Taj,,,,,52.3574228,4.891031,121198.78122137995,485618.29774955695,2423_9712,ChIJ4cM2UKoOvUcRtuL9v0IZAOM
Walia Ibex,Eerste Jacob van Campenstraat,41,Amsterdam,1072 BD,52.357553,4.8896773,121106.6629600403,485633.41631886736,2422_9712,ChIJBRZAde0JxkcRBaVjUaLpfSI
,,,,,52.3572111,4.8905496,121165.82554660569,485594.96804822335,2423_9711,
Antonio's Restaurante,,,,,52.3636482,4.88489,120785.2403586296,486313.83436107513,2415_9726,ChIJT542r0lw54gRteL_VrKG_vA
Maya,,,,,52.3636051,4.8844538,120755.49615163721,486309.24494638824,2415_9726,
Granada,,,,,52.3636437,4.8853422,120816.03764410633,486313.1202989057,2416_9726,ChIJfcIyLeb8cQ0Rcg1g0533WJI
Maass meal station,Jan Pieter Heijestraat,84,Amsterdam,1053GS,52.3639616,4.8630267,119296.31612720726,486359.2500424938,2385_9727,ChIJG299uAvixUcR2mju6SnUktI
Amore Cafe,Johan Huizingalaan,88,,1065 JD,52.3630532,4.8266999,116821.22721522083,486276.69546636264,2336_9725,ChIJxTgrozDixUcRgnukPLDn3Vo
3Hoek,,,,,52.3920442,4.8773839,120296.20360575103,489476.83027486526,2405_9789,ChIJ9aoGNnrhGGAR4tUYwjYAuGM
Utrechtsedwarstafel,,,,,52.3618245,4.9004947,121846.76305557179,486103.6719810044,2436_9722,ChIJWWfWp5YJxkcRAmkQV4nyAcw
,,,,,52.3581719,4.9093685,122448.53157574951,485693.2510444484,2448_9713,
,,,,,52.3589209,4.9083275,122378.16756462019,485777.05495468044,2447_9715,
,,,,,52.3434896,4.8843116,120730.2816896151,484071.2099171946,2414_9681,
Sloppy Joe,Stadionplein,13,Amsterdam,1076CE,52.34455,4.8583911,118964.81562070842,484201.7628360183,2379_9684,ChIJI3XsJf_hxUcRdv6a5ReTpP8
Hakata Senpachi,Wielingenstraat,16,Amsterdam,1078KK,52.3444664,4.8893218,121072.44367537415,484177.5341235203,2421_9683,ChIJPRS-6x8KxkcRMZRGE9OP1Rg
Visaandeschelde,Scheldeplein,4,Amsterdam,1078GR,52.3446707,4.8903816,121144.81700018325,484199.7695158484,2422_9683,ChIJN1v69h8KxkcRkODvws2QVkY
Kobalt,Singel,2a,Amsterdam,1013GA,52.3795667,4.8943639,121442.58199577067,488080.54491766234,2428_9761,ChIJMxnKT8gJxkcRzU8RA4ssfdw
Charle’s,,,,,52.3759889,4.8991578,121766.31165309642,487680.25830173044,2435_9753,
Molly Malone's,Oudezijds Kolk,9,Amsterdam,1012 AL,52.376015,4.9012822,121910.99051684793,487682.19018555875,2438_9753,ChIJBxQ_6rkJxkcRKxcmTOf5HNQ
Tempura,Plantage Kerklaan,26,,,52.3659774,4.9115971,122606.04645278711,486560.7155120338,2452_9731,ChIJkSQVfKIJxkcRAnWQ6PIlhcE
Shabu Shabu,Rembrandtplein,47,Amsterdam,1017CT,52.366149,4.897694,121659.24042034268,486586.1131942182,2433_9731,ChIJncaieJUJxkcRcDoZwY6ccBQ
Bones,Warmoesstraat,55,Amsterdam,1012HW,52.3753211,4.8982122,121701.42040006972,487606.3908119586,2434_9752,ChIJ5X-5RLgJxkcRsP077lXUueg
Eagle,Warmoesstraat,90,Amsterdam,1012JH,52.3746491,4.897024,121620.00389724564,487532.16858939483,2432_9750,ChIJ6dR3Y7gJxkcR16MG59A8ksg
Restaurant Stalpaert,Kattenburgerplein,,Amsterdam,1018 KK,52.3714555,4.9145436,122810.70667524327,487168.9131679152,2456_9743,ChIJ8erzBqQJxkcRLAliKdoeUhA
De Zuid,Azartplein,2-a,Amsterdam,1019 PD,52.3765171,4.9376651,124388.80433646205,487722.0658709829,2487_9754,ChIJKduvvxoJxkcRfX5BMDWMVcA
De Kompaszaal,KNSM-laan,311,Amsterdam,1019LE,52.377159,4.9400559,124552.04314446438,487792.47875779175,2491_9755,ChIJL_R6XBoJxkcRllXaLReG3ks
Magazzino,,,,,52.3769496,4.9214435,123284.52729066549,487777.1626448635,2465_9755,
De Cantine,,,,,52.3741862,4.9355475,124242.99310877018,487463.6185067853,2484_9749,
De Nieuwe KHL,,,,,52.3740065,4.9363092,124294.7383177648,487443.30149091594,2485_9748,ChIJyYMWIxAJxkcRXFxL6NZUr18
Rita en Rosa,Conradstraat,471,Amsterdam,1018NE,52.3719675,4.9313951,123958.6739322616,487218.5288623061,2479_9744,ChIJ99fE8g4JxkcRuw0ESY-ugO4
Helena Primakoff,Lijndenstraat,28,Amsterdam,1018NV,52.371232,4.931038,123933.84014570726,487136.84770896443,2478_9742,ChIJTwDEnw4JxkcR972x6o453J4
Bonboon,Piraeusplein,59,Amsterdam,1019 NM,52.3765161,4.9415271,124651.7810986321,487720.3303792558,2493_9754,ChIJsRQN3KYJxkcRED-BDjSbpOg
,,,,,52.3727948,4.93667,124318.46976883184,487308.3308485154,2486_9746,
Lloyd Hotel,,,,,52.3741514,4.9347391,124187.91919736043,487460.08992296265,2483_9749,ChIJHWmuwg8JxkcR_-ju_o37TAI
Happyhappyjoyjoy,Oostelijke Handelskade,4,,,52.3750168,4.9301187,123873.89020838532,487558.3516262417,2477_9751,ChIJIdw7RA8JxkcRAlRm9E09xnI
IJstuin,,,,,52.4134766,4.9722426,126766.86091005997,491820.2885243669,2535_9836,
Cafe IJzicht,,,,,52.3898106,4.9435481,124798.45393205223,489198.6806060049,2495_9783,ChIJ-05MweMIxkcRwpxpuAyEycI
Wagamama,,,,,52.339909,4.872697,119935.98809623018,483678.37895147933,2398_9673,
